{"type":"FeatureCollection","name":"Liberia_Education_Facilities_Points","crs":{"type":"name","properties":{"name":"urn:ogc:def:crs:OGC:1.3:CRS84"}},"features":[{"type":"Feature","properties":{"name":"Gebraltar Islamic Foundation Elementary School","amenity":"kindergarten","addr_city":"Monrovia","source":"Open Cities Monrovia - HOT Field Survey","osm_id":"6011954140","osm_type":"nodes"},"geometry":{"type":"Point","coordinates":[-10.7987988,6.32657]}},{"type":"Feature","properties":{"name":"Clara Town Elementary and Junior High School (CTE)","amenity":"school","addr_city":"Monrovia","source":"Open Cities Monrovia - HOT Field Survey","osm_id":"6011953684","osm_type":"nodes"},"geometry":{"type":"Point","coordinates":[-10.7968629,6.3268532]}},{"type":"Feature","properties":{"name":"Mboh Al-amienu Foundation.","amenity":"school","addr_city":"Monrovia","source":"Open Cities Monrovia - HOT Field Survey","osm_id":"6015253115","osm_type":"nodes"},"geometry":{"type":"Point","coordinates":[-10.7976694,6.3287262]}},{"type":"Feature","properties":{"name":"Pratt's Academy School System Daycare, Elementary and Junior High","amenity":"school","addr_city":"Monrovia","source":"Open Cities Monrovia - HOT Field Survey","osm_id":"6011953789","osm_type":"nodes"},"geometry":{"type":"Point","coordinates":[-10.7961337,6.3266656]}},{"type":"Feature","properties":{"name":"Imam Salah Elementary Islamic School","amenity":"school","addr_city":"Monrovia","source":"Open Cities Monrovia - HOT Field Survey","osm_id":"6011954139","osm_type":"nodes"},"geometry":{"type":"Point","coordinates":[-10.7972264,6.3272791]}},{"type":"Feature","properties":{"amenity":"kindergarten","addr_city":"Vahun","source":"Red Cross Field Survey","osm_id":"4192479811","osm_type":"nodes"},"geometry":{"type":"Point","coordinates":[-10.5045336,8.0625094]}},{"type":"Feature","properties":{"name":"School Building","amenity":"kindergarten","addr_city":"Vahun","source":"Red Cross Field Survey","osm_id":"4192479813","osm_type":"nodes"},"geometry":{"type":"Point","coordinates":[-10.5037719,8.0633274]}},{"type":"Feature","properties":{"name":"United States Agency International Development","amenity":"kindergarten","addr_city":"Vahun","source":"Red Cross Field Survey","osm_id":"4192479831","osm_type":"nodes"},"geometry":{"type":"Point","coordinates":[-10.5032694,8.0628629]}},{"type":"Feature","properties":{"name":"Willan Mannar Lutheran School","amenity":"kindergarten","addr_city":"Fissebu Town","source":"Red Cross Field Survey","osm_id":"4192479837","osm_type":"nodes"},"geometry":{"type":"Point","coordinates":[-9.4639505,7.8211647]}},{"type":"Feature","properties":{"name":"St. Amos Academy & Daycare School","amenity":"school","osm_id":"5254791621","osm_type":"nodes"},"geometry":{"type":"Point","coordinates":[-8.0138341,5.2316178]}},{"type":"Feature","properties":{"name":"Bassa High","name_en":"Bassa High","amenity":"school","osm_id":"4570010389","osm_type":"nodes"},"geometry":{"type":"Point","coordinates":[-10.0445169,5.8818695]}},{"type":"Feature","properties":{"name":"Zorzor YMCA School","amenity":"school","addr_city":"Zorzor city","osm_id":"4192479846","osm_type":"nodes"},"geometry":{"type":"Point","coordinates":[-9.4243062,7.7856683]}},{"type":"Feature","properties":{"name":"Zorzor Luthrian Mission High School","amenity":"school","addr_city":"Zorzor","source":"Red Cross Field Survey","osm_id":"4192479845","osm_type":"nodes"},"geometry":{"type":"Point","coordinates":[-9.4378221,7.7749348]}},{"type":"Feature","properties":{"name":"Zorzor Institute Of Computer","amenity":"school","addr_city":"Zorzor","osm_id":"4192479844","osm_type":"nodes"},"geometry":{"type":"Point","coordinates":[-9.4283917,7.7762919]}},{"type":"Feature","properties":{"name":"METEE KLIBO AGRO TECH COMMUNITY SCHOOL","amenity":"school","addr_city":"Gbarnga","osm_id":"5034513944","osm_type":"nodes"},"geometry":{"type":"Point","coordinates":[-9.4864713,7.1116642]}},{"type":"Feature","properties":{"name":"Chrys Johnson's Day Care School","amenity":"school","addr_city":"Salayea","osm_id":"4192479574","osm_type":"nodes"},"geometry":{"type":"Point","coordinates":[-9.4886872,7.6141986]}},{"type":"Feature","properties":{"name":"Konia Garbo Public School","amenity":"school","addr_city":"Konia","source":"Red Cross Field Survey","osm_id":"4489362230","osm_type":"nodes"},"geometry":{"type":"Point","coordinates":[-9.5441671,7.9627176]}},{"type":"Feature","properties":{"name":"Yarpawolo Zaza Public School","amenity":"school","addr_city":"Konia","source":"Red Cross Field Survey","osm_id":"4489362231","osm_type":"nodes"},"geometry":{"type":"Point","coordinates":[-9.5442703,7.9628384]}},{"type":"Feature","properties":{"name":"Arifa Community School","amenity":"school","addr_city":"Borkeza Town","source":"Red Cross Field Survey","osm_id":"4192479564","osm_type":"nodes"},"geometry":{"type":"Point","coordinates":[-9.4565061,7.9130246]}},{"type":"Feature","properties":{"name":"Tongi Academic Primary school","amenity":"kindergarten","addr_city":"Buedu","osm_id":"4546903357","osm_type":"nodes"},"geometry":{"type":"Point","coordinates":[-10.3718364,8.2844201]}},{"type":"Feature","properties":{"name":"St. Esther's Kingdom Guidain School","amenity":"school","addr_city":"Sanniquellie","source":"Red Cross Field Survey","osm_id":"4192479817","osm_type":"nodes"},"geometry":{"type":"Point","coordinates":[-8.7159026,7.3777462]}},{"type":"Feature","properties":{"name":"Vehyipa Public School","amenity":"school","addr_city":"Sanniquellie","source":"Red Cross Field Survey","osm_id":"4192479833","osm_type":"nodes"},"geometry":{"type":"Point","coordinates":[-8.7040887,7.3765477]}},{"type":"Feature","properties":{"name":"St.Mary's Elementary School","amenity":"school","addr_city":"Sanniquellie","source":"Red Cross Field Survey","osm_id":"4192479822","osm_type":"nodes"},"geometry":{"type":"Point","coordinates":[-8.7081671,7.3636799]}},{"type":"Feature","properties":{"name":"Sarbo Waffliken Elementary School","amenity":"school","osm_id":"5254791321","osm_type":"nodes"},"geometry":{"type":"Point","coordinates":[-7.7537172,5.1557934]}},{"type":"Feature","properties":{"name":"Petroken Elementary School","amenity":"school","osm_id":"5254790923","osm_type":"nodes"},"geometry":{"type":"Point","coordinates":[-8.1406368,5.6455175]}},{"type":"Feature","properties":{"name":"Tuley Jeh KG School","amenity":"school","osm_id":"5248438844","osm_type":"nodes"},"geometry":{"type":"Point","coordinates":[-8.093018,4.6502984]}},{"type":"Feature","properties":{"name":"Zoloken Elementary and Junior High School","amenity":"school","osm_id":"5248438845","osm_type":"nodes"},"geometry":{"type":"Point","coordinates":[-8.092854,4.6504011]}},{"type":"Feature","properties":{"name":"R C 1 Primary school koindu town","amenity":"school","addr_city":"Buedu","source":"Red Cross Field Survey","osm_id":"4546926306","osm_type":"nodes"},"geometry":{"type":"Point","coordinates":[-10.333343,8.4598895]}},{"type":"Feature","properties":{"name":"Hawa Kallon's House","amenity":"school","addr_city":"Buedu","source":"Red Cross Field Survey","osm_id":"4546926310","osm_type":"nodes"},"geometry":{"type":"Point","coordinates":[-10.343704,8.4693333]}},{"type":"Feature","properties":{"name":"Arcelor Mital High school","amenity":"school","addr_city":"Yekepa","osm_id":"4192479563","osm_type":"nodes"},"geometry":{"type":"Point","coordinates":[-8.5268592,7.5810833]}},{"type":"Feature","properties":{"name":"St. Joseph Elementary School","amenity":"school","addr_city":"Yekepa","osm_id":"4192479819","osm_type":"nodes"},"geometry":{"type":"Point","coordinates":[-8.5525136,7.5759882]}},{"type":"Feature","properties":{"name":"ABC University","amenity":"school","osm_id":"6187725285","osm_type":"nodes"},"geometry":{"type":"Point","coordinates":[-8.5288977,7.5798292]}},{"type":"Feature","properties":{"amenity":"school","osm_id":"11669067511","osm_type":"nodes"},"geometry":{"type":"Point","coordinates":[-7.4915721,4.9752711]}},{"type":"Feature","properties":{"name":"Vocational and Technical Institute","amenity":"college","addr_city":"Zwedru","osm_id":"4895596156","osm_type":"nodes"},"geometry":{"type":"Point","coordinates":[-8.138443,6.0618301]}},{"type":"Feature","properties":{"name":"Harbel Elementary","amenity":"school","osm_id":"4293621589","osm_type":"nodes"},"geometry":{"type":"Point","coordinates":[-10.3489058,6.2763065]}},{"type":"Feature","properties":{"name":"Dolo Town public school","amenity":"school","osm_id":"5910196985","osm_type":"nodes"},"geometry":{"type":"Point","coordinates":[-10.3601286,6.2596508]}},{"type":"Feature","properties":{"amenity":"kindergarten","addr_city":"Ganta","osm_id":"5024767336","osm_type":"nodes"},"geometry":{"type":"Point","coordinates":[-8.9775835,7.1976787]}},{"type":"Feature","properties":{"name":"New Life Elementary Junior High School","amenity":"kindergarten","addr_city":"Voinjama City","source":"Red Cross Field Survey","osm_id":"4192479801","osm_type":"nodes"},"geometry":{"type":"Point","coordinates":[-9.7582169,8.4339547]}},{"type":"Feature","properties":{"name":"Grand Bassa Community College (GBCC)","name_en":"Grand Bassa Community College (GBCC)","amenity":"school","osm_id":"4570010289","osm_type":"nodes"},"geometry":{"type":"Point","coordinates":[-10.0352027,5.9204266]}},{"type":"Feature","properties":{"name":"Kormah Shrphedhood Mission School","amenity":"school","addr_city":"Voinjama City","source":"Red Cross Field Survey","osm_id":"4192479791","osm_type":"nodes"},"geometry":{"type":"Point","coordinates":[-9.7614766,8.4180273]}},{"type":"Feature","properties":{"name":"Voinjama District Women","amenity":"school","addr_city":"Voinjama City","source":"Red Cross Field Survey","osm_id":"4192479834","osm_type":"nodes"},"geometry":{"type":"Point","coordinates":[-9.750319,8.4196914]}},{"type":"Feature","properties":{"name":"Voinjama Evenglical Luthrin School","amenity":"school","addr_city":"Voinjama City","source":"Red Cross Field Survey","osm_id":"4192479835","osm_type":"nodes"},"geometry":{"type":"Point","coordinates":[-9.7620245,8.4301727]}},{"type":"Feature","properties":{"name":"William V.S. Tubman High School","amenity":"school","addr_city":"Monrovia","source":"National Public Health Institute of Liberia (NPHIL)","osm_id":"7710661320","osm_type":"nodes"},"geometry":{"type":"Point","coordinates":[-10.7808843,6.2976764]}},{"type":"Feature","properties":{"name":"Mother Patern College of Health Sciences","amenity":"school","addr_city":"Monrovia","source":"National Public Health Institute of Liberia (NPHIL)","osm_id":"7710677211","osm_type":"nodes"},"geometry":{"type":"Point","coordinates":[-10.8083998,6.3104239]}},{"type":"Feature","properties":{"amenity":"college","osm_id":"12827797902","osm_type":"nodes"},"geometry":{"type":"Point","coordinates":[-10.823968,6.8720994]}},{"type":"Feature","properties":{"amenity":"school","addr_city":"Mambo Town","source":"Red Cross Field Survey","osm_id":"4501019425","osm_type":"nodes"},"geometry":{"type":"Point","coordinates":[-11.2946564,7.0001498]}},{"type":"Feature","properties":{"name":"Flomo Respect Memorial Elementary & Junior High School","amenity":"school","addr_city":"Yarpuah","osm_id":"4192479579","osm_type":"nodes"},"geometry":{"type":"Point","coordinates":[-9.4198414,7.6547968]}},{"type":"Feature","properties":{"name":"New Sanniquellie Pre-primary Elementary School","amenity":"school","addr_city":"Sanniquellie","source":"Red Cross Field Survey","osm_id":"4192479802","osm_type":"nodes"},"geometry":{"type":"Point","coordinates":[-8.7159526,7.3644177]}},{"type":"Feature","properties":{"name":"Lehgain Public School","amenity":"school","addr_city":"Ganta","osm_id":"4904228435","osm_type":"nodes"},"geometry":{"type":"Point","coordinates":[-8.9116547,7.2570738]}},{"type":"Feature","properties":{"name":"Lutheran Elementary & Jr High School","amenity":"school","osm_id":"5205576692","osm_type":"nodes"},"geometry":{"type":"Point","coordinates":[-8.5411454,7.5731547]}},{"type":"Feature","properties":{"name":"St.Mary High School","amenity":"school","addr_city":"Sanniquellie","source":"Red Cross Field Survey","osm_id":"4100642480","osm_type":"nodes"},"geometry":{"type":"Point","coordinates":[-8.706826,7.364712]}},{"type":"Feature","properties":{"name":"Borkeza Christian Revival Mission School","amenity":"kindergarten","addr_city":"Borkeza Town","source":"Red Cross Field Survey","osm_id":"4192479569","osm_type":"nodes"},"geometry":{"type":"Point","coordinates":[-9.4574583,7.9117043]}},{"type":"Feature","properties":{"name":"Sis Veronica Babies Care","amenity":"kindergarten","addr_city":"Ganta","osm_id":"4100642477","osm_type":"nodes"},"geometry":{"type":"Point","coordinates":[-8.9841011,7.2338653]}},{"type":"Feature","properties":{"name":"Mckaye Public School","amenity":"kindergarten","addr_city":"Gbarnga","osm_id":"5038966351","osm_type":"nodes"},"geometry":{"type":"Point","coordinates":[-9.5039839,6.9004375]}},{"type":"Feature","properties":{"name":"Rafiki village children","amenity":"school","osm_id":"5757973774","osm_type":"nodes"},"geometry":{"type":"Point","coordinates":[-10.5374195,6.2029039]}},{"type":"Feature","properties":{"name":"Pokor Elementary School","amenity":"school","osm_id":"5254790924","osm_type":"nodes"},"geometry":{"type":"Point","coordinates":[-8.5753761,6.4337535]}},{"type":"Feature","properties":{"name":"Alexander Kettet Academy (A.K.A.)","amenity":"school","addr_city":"Bo Waterside","source":"Red Cross Field Survey","osm_id":"4192479562","osm_type":"nodes"},"geometry":{"type":"Point","coordinates":[-11.374315,7.0130397]}},{"type":"Feature","properties":{"name":"Kakata Rural Teachers Training Institute","amenity":"school","source":"Bing","osm_id":"3103118023","osm_type":"nodes"},"geometry":{"type":"Point","coordinates":[-10.3616712,6.5327294]}},{"type":"Feature","properties":{"name":"Victory Christian School System","amenity":"school","addr_city":"Monrovia","source":"Open Cities Monrovia - HOT Field Survey","osm_id":"6043603654","osm_type":"nodes"},"geometry":{"type":"Point","coordinates":[-10.787124,6.3317913]}},{"type":"Feature","properties":{"name":"Caldwell Christian academy","amenity":"school","osm_id":"6276275491","osm_type":"nodes"},"geometry":{"type":"Point","coordinates":[-10.8132791,6.3191001]}},{"type":"Feature","properties":{"name":"DR. ALPHA BAHR MEMORIAL ENGLISH AND ARABIC INSTITUTE (DAAMEA)","amenity":"school","addr_city":"Monrovia","osm_id":"7209605400","osm_type":"nodes"},"geometry":{"type":"Point","coordinates":[-10.7893417,6.3717602]}},{"type":"Feature","properties":{"name":"Liberia Assembly of God Bible College (LAGBC)","name_en":"Liberia Assembly of God Bible College (LAGBC)","amenity":"school","osm_id":"4783959142","osm_type":"nodes"},"geometry":{"type":"Point","coordinates":[-10.7918253,6.4301921]}},{"type":"Feature","properties":{"amenity":"school","building":"yes","osm_id":"1832558737","osm_type":"nodes"},"geometry":{"type":"Point","coordinates":[-8.7199603,6.2621597]}},{"type":"Feature","properties":{"name":"True Vine Academy","amenity":"school","osm_id":"5248437644","osm_type":"nodes"},"geometry":{"type":"Point","coordinates":[-10.2725672,6.2137875]}},{"type":"Feature","properties":{"name":"Kpolokpal Public School","amenity":"school","addr_city":"Gbarnga","osm_id":"5037157752","osm_type":"nodes"},"geometry":{"type":"Point","coordinates":[-9.3756858,6.9348084]}},{"type":"Feature","properties":{"name":"St.Francis High School","amenity":"school","osm_id":"5288193632","osm_type":"nodes"},"geometry":{"type":"Point","coordinates":[-10.718116,6.3049957]}},{"type":"Feature","properties":{"name":"Lutheran Training Institute","amenity":"school","addr_city":"Salayea","source":"Red Cross Field Survey","osm_id":"4192479796","osm_type":"nodes"},"geometry":{"type":"Point","coordinates":[-9.4890598,7.6219309]}},{"type":"Feature","properties":{"name":"Zimi bamballa High School","amenity":"school","addr_city":"Bamballa","source":"Red Cross Field Survey","osm_id":"4192479841","osm_type":"nodes"},"geometry":{"type":"Point","coordinates":[-11.1748767,7.2216618]}},{"type":"Feature","properties":{"name":"Weamawuo Elementary School","amenity":"school","osm_id":"7757546085","osm_type":"nodes"},"geometry":{"type":"Point","coordinates":[-10.8752572,7.0664482]}},{"type":"Feature","properties":{"amenity":"school","osm_id":"5322393322","osm_type":"nodes"},"geometry":{"type":"Point","coordinates":[-10.7943076,6.2971028]}},{"type":"Feature","properties":{"name":"Doe Community Institute","amenity":"college","addr_city":"Monrovia","source":"Open Cities Monrovia - HOT Field Survey","osm_id":"5929135799","osm_type":"nodes"},"geometry":{"type":"Point","coordinates":[-10.7841834,6.3338858]}},{"type":"Feature","properties":{"name":"Liberia Assemblies of God Bible College","amenity":"college","osm_id":"6316910482","osm_type":"nodes"},"geometry":{"type":"Point","coordinates":[-10.7921184,6.4307135]}},{"type":"Feature","properties":{"name":"University of Liberia","amenity":"university","addr_city":"Bensonville","source":"National Public Health Institute of Liberia (NPHIL)","osm_id":"7743711975","osm_type":"nodes"},"geometry":{"type":"Point","coordinates":[-10.6189225,6.3758057]}},{"type":"Feature","properties":{"name":"St.Valentine Episcopal Daycare School","amenity":"kindergarten","addr_city":"Sanniquellie","source":"Red Cross Field Survey","osm_id":"4192479823","osm_type":"nodes"},"geometry":{"type":"Point","coordinates":[-8.717724,7.3636489]}},{"type":"Feature","properties":{"amenity":"kindergarten","osm_id":"3006200420","osm_type":"nodes"},"geometry":{"type":"Point","coordinates":[-10.4313232,6.1883762]}},{"type":"Feature","properties":{"name":"William A Brown Public School","amenity":"kindergarten","addr_city":"Voinjama City","source":"Red Cross Field Survey","osm_id":"4192479838","osm_type":"nodes"},"geometry":{"type":"Point","coordinates":[-9.7474857,8.4208512]}},{"type":"Feature","properties":{"name":"Worries Kids Academic Mission School","amenity":"kindergarten","addr_city":"Foya City","source":"Red Cross Field Survey","osm_id":"4192479839","osm_type":"nodes"},"geometry":{"type":"Point","coordinates":[-10.2094551,8.3585975]}},{"type":"Feature","properties":{"name":"United Muslim Brotherhood English N Araba School","amenity":"kindergarten","addr_city":"Foya City","source":"Red Cross Field Survey","osm_id":"4192479830","osm_type":"nodes"},"geometry":{"type":"Point","coordinates":[-10.2084075,8.3599981]}},{"type":"Feature","properties":{"name":"G.W. Gibson Public High School","amenity":"school","addr_city":"Monrovia","source":"National Public Health Institute of Liberia (NPHIL)","osm_id":"7710661379","osm_type":"nodes"},"geometry":{"type":"Point","coordinates":[-10.797793,6.3089802]}},{"type":"Feature","properties":{"name":"Early Breed Foundation School","amenity":"school","addr_city":"Monrovia","source":"Open Cities Monrovia - HOT Field Survey","osm_id":"6021986995","osm_type":"nodes"},"geometry":{"type":"Point","coordinates":[-10.7962849,6.3279934]}},{"type":"Feature","properties":{"name":"Redeemed Christian School","amenity":"school","addr_city":"Monrovia","source":"Open Cities Monrovia - HOT Field Survey","osm_id":"6011953683","osm_type":"nodes"},"geometry":{"type":"Point","coordinates":[-10.7939618,6.3270765]}},{"type":"Feature","properties":{"name":"Great Nation School System","amenity":"school","addr_city":"Monrovia","source":"Open Cities Monrovia - HOT Field Survey","osm_id":"6296183471","osm_type":"nodes"},"geometry":{"type":"Point","coordinates":[-10.7912008,6.3291419]}},{"type":"Feature","properties":{"name":"Science & Technology Building","amenity":"school","addr_city":"Bo Waterside","source":"Red Cross Field Survey","osm_id":"4192479814","osm_type":"nodes"},"geometry":{"type":"Point","coordinates":[-11.3749695,7.0126883]}},{"type":"Feature","properties":{"name":"Lofa Congo Public School","amenity":"school","osm_id":"7757570085","osm_type":"nodes"},"geometry":{"type":"Point","coordinates":[-10.8386897,7.0946661]}},{"type":"Feature","properties":{"name":"Weamawuo Junior and Senior High School","amenity":"school","osm_id":"7757545985","osm_type":"nodes"},"geometry":{"type":"Point","coordinates":[-10.8760609,7.0662994]}},{"type":"Feature","properties":{"name":"Kpaiyea Public School","amenity":"school","addr_city":"Kpaiyea","source":"Red Cross Field Survey","osm_id":"4192479792","osm_type":"nodes"},"geometry":{"type":"Point","coordinates":[-9.385457,7.7140961]}},{"type":"Feature","properties":{"name":"Kumgbor Public Elemetry School","amenity":"school","building":"yes","addr_city":"Kumgbor","source":"Red Cross Field Survey","osm_id":"4192479794","osm_type":"nodes"},"geometry":{"type":"Point","coordinates":[-10.5764544,7.6457073]}},{"type":"Feature","properties":{"name":"Roman Catholic Primary School","amenity":"school","addr_city":"Faama","source":"Red Cross Field Survey","osm_id":"4546830126","osm_type":"nodes"},"geometry":{"type":"Point","coordinates":[-10.9964336,7.5246019]}},{"type":"Feature","properties":{"name":"Bpapa School","amenity":"school","addr_city":"Bpapa","osm_id":"4100642402","osm_type":"nodes"},"geometry":{"type":"Point","coordinates":[-8.6153367,7.4887971]}},{"type":"Feature","properties":{"name":"True Vine Primary School","amenity":"school","addr_city":"Sanniquellie","osm_id":"4192479828","osm_type":"nodes"},"geometry":{"type":"Point","coordinates":[-8.7131576,7.3665498]}},{"type":"Feature","properties":{"name":"Levi H.Martin Baptist school","amenity":"school","addr_city":"Sanniquellie","source":"Red Cross Field Survey","osm_id":"4192479809","osm_type":"nodes"},"geometry":{"type":"Point","coordinates":[-8.7150299,7.3579371]}},{"type":"Feature","properties":{"name":"Soopa Refugee School","amenity":"school","addr_city":"Soopa","source":"Red Cross Field Survey","osm_id":"4515293748","osm_type":"nodes"},"geometry":{"type":"Point","coordinates":[-9.0550555,7.2592641]}},{"type":"Feature","properties":{"name":"Konia Christian Revival Mission High School","amenity":"school","addr_city":"Konia","source":"Red Cross Field Survey","osm_id":"4192479790","osm_type":"nodes"},"geometry":{"type":"Point","coordinates":[-9.5430478,7.9628135]}},{"type":"Feature","properties":{"name":"Sumo Kota School","amenity":"school","addr_city":"Fissebu Town","osm_id":"4192479824","osm_type":"nodes"},"geometry":{"type":"Point","coordinates":[-9.466103,7.8157286]}},{"type":"Feature","properties":{"name":"Zrtti Demonstration School","amenity":"school","addr_city":"Fissebu Town","osm_id":"4192479840","osm_type":"nodes"},"geometry":{"type":"Point","coordinates":[-9.4641289,7.8184364]}},{"type":"Feature","properties":{"name":"Sumo Kota School","amenity":"school","addr_city":"Fissebu Town","source":"Red Cross Field Survey","osm_id":"4501025853","osm_type":"nodes"},"geometry":{"type":"Point","coordinates":[-9.4665496,7.8172519]}},{"type":"Feature","properties":{"name":"Hair Dressing","amenity":"school","addr_city":"Fissebu Town","source":"Red Cross Field Survey","osm_id":"4192479583","osm_type":"nodes"},"geometry":{"type":"Point","coordinates":[-9.4652072,7.8209795]}},{"type":"Feature","properties":{"name":"Zorzor Christian Academy (ZCA)","amenity":"school","building":"yes","addr_city":"Zorzor City","osm_id":"4192039630","osm_type":"nodes"},"geometry":{"type":"Point","coordinates":[-9.4227065,7.7710655]}},{"type":"Feature","properties":{"name":"John Zawu School","amenity":"school","addr_city":"Zorzor","source":"Red Cross Field Survey","osm_id":"4192479587","osm_type":"nodes"},"geometry":{"type":"Point","coordinates":[-9.4254769,7.7771217]}},{"type":"Feature","properties":{"name":"Flomo Respect Memorial Elementary & Junior High School","amenity":"school","addr_city":"Yarpuah","source":"Red Cross Field Survey","osm_id":"4500971825","osm_type":"nodes"},"geometry":{"type":"Point","coordinates":[-9.4236636,7.6552527]}},{"type":"Feature","properties":{"name":"UMC high school","amenity":"school","addr_city":"Jendema","source":"Red Cross Field Survey","osm_id":"4546898160","osm_type":"nodes"},"geometry":{"type":"Point","coordinates":[-11.3878986,7.0236935]}},{"type":"Feature","properties":{"amenity":"school","addr_city":"Jendema","source":"Red Cross Field Survey","osm_id":"4546898159","osm_type":"nodes"},"geometry":{"type":"Point","coordinates":[-11.3841215,7.0224013]}},{"type":"Feature","properties":{"name":"Bumie Kpanja Public school","amenity":"school","osm_id":"6194717886","osm_type":"nodes"},"geometry":{"type":"Point","coordinates":[-10.3768856,6.2916063]}},{"type":"Feature","properties":{"name":"Vahun Central High school","amenity":"school","addr_city":"Vahun city","source":"Red Cross Field Survey","osm_id":"4192479832","osm_type":"nodes"},"geometry":{"type":"Point","coordinates":[-10.5063137,8.0625485]}},{"type":"Feature","properties":{"name":"Kissi Bendu secondary school","amenity":"school","addr_city":"Buedu","source":"Red Cross Field Survey","osm_id":"4546926309","osm_type":"nodes"},"geometry":{"type":"Point","coordinates":[-10.3220063,8.4618603]}},{"type":"Feature","properties":{"name":"Kissi Tongi Community Secondary school","amenity":"school","addr_city":"Buedu","source":"Red Cross Field Survey","osm_id":"4546903355","osm_type":"nodes"},"geometry":{"type":"Point","coordinates":[-10.383358,8.2799303]}},{"type":"Feature","properties":{"name":"Jusu Dunor Public School","amenity":"school","addr_city":"Popalahun Town","source":"Red Cross Field Survey","osm_id":"4192479588","osm_type":"nodes"},"geometry":{"type":"Point","coordinates":[-10.2276315,8.1768284]}},{"type":"Feature","properties":{"name":"St, Joseph Catholie School","amenity":"school","addr_city":"Voinjama City","source":"Red Cross Field Survey","osm_id":"4192479818","osm_type":"nodes"},"geometry":{"type":"Point","coordinates":[-9.7483286,8.4213722]}},{"type":"Feature","properties":{"name":"Voinjama Free Pentecostal Mission High School","amenity":"school","addr_city":"Voinjama City","source":"Red Cross Field Survey","osm_id":"4192479836","osm_type":"nodes"},"geometry":{"type":"Point","coordinates":[-9.7572848,8.4166187]}},{"type":"Feature","properties":{"name":"Plan Liberia","amenity":"school","addr_city":"Foya City","source":"Red Cross Field Survey","osm_id":"4192479803","osm_type":"nodes"},"geometry":{"type":"Point","coordinates":[-10.2063014,8.3463296]}},{"type":"Feature","properties":{"name":"Boma School","amenity":"school","addr_city":"Foya City","source":"Red Cross Field Survey","osm_id":"4192479568","osm_type":"nodes"},"geometry":{"type":"Point","coordinates":[-10.2003137,8.3556251]}},{"type":"Feature","properties":{"name":"Bishop Banquando Foundation Nursery School","amenity":"school","addr_city":"Foya City","source":"Red Cross Field Survey","osm_id":"4192479565","osm_type":"nodes"},"geometry":{"type":"Point","coordinates":[-10.209525,8.3570794]}},{"type":"Feature","properties":{"name":"First Assembly Of God Mission High School","amenity":"school","addr_city":"Foya City","source":"Red Cross Field Survey","osm_id":"4192479578","osm_type":"nodes"},"geometry":{"type":"Point","coordinates":[-10.2114487,8.3595104]}},{"type":"Feature","properties":{"name":"Trinity Evangelical Lutheran Mission","amenity":"school","addr_city":"Foya","source":"Red Cross Field Survey","osm_id":"4192479827","osm_type":"nodes"},"geometry":{"type":"Point","coordinates":[-10.2111085,8.3647669]}},{"type":"Feature","properties":{"name":"Kpandonin Elementary Public School","amenity":"school","addr_city":"Foya City","source":"Red Cross Field Survey","osm_id":"4192479793","osm_type":"nodes"},"geometry":{"type":"Point","coordinates":[-10.2067816,8.3669726]}},{"type":"Feature","properties":{"name":"Bolahun Public High School","amenity":"school","addr_city":"Bolahun","source":"Red Cross Field Survey","osm_id":"4192479567","osm_type":"nodes"},"geometry":{"type":"Point","coordinates":[-10.1618208,8.232653]}},{"type":"Feature","properties":{"name":"Bolahun Mission School","amenity":"school","addr_city":"Bolahun","source":"Red Cross Field Survey","osm_id":"4192479566","osm_type":"nodes"},"geometry":{"type":"Point","coordinates":[-10.1612901,8.2311886]}},{"type":"Feature","properties":{"name":"Reverend Andrew S. Sarwieh Sr. Christian Foundation","amenity":"school","osm_id":"5254791421","osm_type":"nodes"},"geometry":{"type":"Point","coordinates":[-7.8800472,5.1986716]}},{"type":"Feature","properties":{"name":"Tweh Jaiklay High School","amenity":"school","osm_id":"5082250699","osm_type":"nodes"},"geometry":{"type":"Point","coordinates":[-7.8867086,5.2009209]}},{"type":"Feature","properties":{"name":"New Life ELC KG and Elementary School","amenity":"school","osm_id":"5248563624","osm_type":"nodes"},"geometry":{"type":"Point","coordinates":[-7.738426,4.7953451]}},{"type":"Feature","properties":{"name":"Karloken Elementary and Junior High","amenity":"school","osm_id":"5248563722","osm_type":"nodes"},"geometry":{"type":"Point","coordinates":[-7.73551,4.8004485]}},{"type":"Feature","properties":{"name":"Peter H. Wholubah School","amenity":"school","osm_id":"5248582222","osm_type":"nodes"},"geometry":{"type":"Point","coordinates":[-7.7386616,4.8050007]}},{"type":"Feature","properties":{"name":"Wuluken Elementary and Junior High","amenity":"school","osm_id":"5248563625","osm_type":"nodes"},"geometry":{"type":"Point","coordinates":[-7.7246423,4.7494731]}},{"type":"Feature","properties":{"name":"Jallamia School","amenity":"school","osm_id":"4098710148","osm_type":"nodes"},"geometry":{"type":"Point","coordinates":[-9.8239885,8.4923215]}},{"type":"Feature","properties":{"name":"St Francis High School","amenity":"school","osm_id":"5253558127","osm_type":"nodes"},"geometry":{"type":"Point","coordinates":[-7.6687093,4.5821141]}},{"type":"Feature","properties":{"name":"St Francis Elementary School","amenity":"school","osm_id":"5253558126","osm_type":"nodes"},"geometry":{"type":"Point","coordinates":[-7.6682415,4.5831933]}},{"type":"Feature","properties":{"name":"École Primaire De Teldou","amenity":"school","addr_city":"Teldou","source":"Red Cross Field Survey","osm_id":"4515288534","osm_type":"nodes"},"geometry":{"type":"Point","coordinates":[-10.2336189,8.5276532]}},{"type":"Feature","properties":{"name":"École Primaire De Teldou","amenity":"school","addr_city":"Teldou","source":"Red Cross Field Survey","osm_id":"4515288533","osm_type":"nodes"},"geometry":{"type":"Point","coordinates":[-10.2339086,8.5275577]}},{"type":"Feature","properties":{"name":"Apostolic primary school","amenity":"school","addr_city":"Buedu","source":"Red Cross Field Survey","osm_id":"4546926305","osm_type":"nodes"},"geometry":{"type":"Point","coordinates":[-10.3425621,8.4571941]}},{"type":"Feature","properties":{"name":"Smile With Us Primary School","amenity":"school","addr_city":"Koindu","source":"Red Cross Field Survey","osm_id":"4546820539","osm_type":"nodes"},"geometry":{"type":"Point","coordinates":[-10.3311496,8.4603025]}},{"type":"Feature","properties":{"name":"Kerkulah Farm Public School","amenity":"school","addr_city":"Gbarnga","osm_id":"5037126678","osm_type":"nodes"},"geometry":{"type":"Point","coordinates":[-9.3787429,7.0079502]}},{"type":"Feature","properties":{"name":"Nathan Barnes KG and Elementary School","amenity":"school","osm_id":"5248582221","osm_type":"nodes"},"geometry":{"type":"Point","coordinates":[-7.7137062,4.3752062]}},{"type":"Feature","properties":{"name":"Harper Demonstration Elementary and Junior High School","amenity":"school","osm_id":"5254790821","osm_type":"nodes"},"geometry":{"type":"Point","coordinates":[-7.7127163,4.3756833]}},{"type":"Feature","properties":{"name":"Paynesville Community School (Voker mission)","amenity":"school","osm_id":"5279932422","osm_type":"nodes"},"geometry":{"type":"Point","coordinates":[-10.7021198,6.2710304]}},{"type":"Feature","properties":{"name":"SBM Elementary and Kindergarten","amenity":"school","osm_id":"5254791121","osm_type":"nodes"},"geometry":{"type":"Point","coordinates":[-7.6722346,4.8324508]}},{"type":"Feature","properties":{"name":"Aldura Per School","amenity":"kindergarten","addr_city":"Buedu","source":"Red Cross Field Survey","osm_id":"4546822051","osm_type":"nodes"},"geometry":{"type":"Point","coordinates":[-10.3706545,8.2840726]}},{"type":"Feature","properties":{"name":"Maternel de Houidou","amenity":"kindergarten","addr_city":"Gueckedou","source":"Red Cross Field Survey","osm_id":"4515288255","osm_type":"nodes"},"geometry":{"type":"Point","coordinates":[-10.1302341,8.5755729]}},{"type":"Feature","properties":{"name":"Annie been","name_en":"Annie been","amenity":"school","osm_id":"4756008222","osm_type":"nodes"},"geometry":{"type":"Point","coordinates":[-10.7834187,6.4291079]}},{"type":"Feature","properties":{"name":"Salayea Public Elementary School","amenity":"school","addr_city":"Salayea","osm_id":"4192479808","osm_type":"nodes"},"geometry":{"type":"Point","coordinates":[-9.4876444,7.6176212]}},{"type":"Feature","properties":{"name":"Hidden Eye College","amenity":"school","addr_city":"Bellemu","source":"Red Cross Field Survey","osm_id":"4192479584","osm_type":"nodes"},"geometry":{"type":"Point","coordinates":[-9.2160804,7.1948507]}},{"type":"Feature","properties":{"name":"Lutheran School","amenity":"school","addr_city":"Gahnmue","source":"Red Cross Field Survey","osm_id":"4501030459","osm_type":"nodes"},"geometry":{"type":"Point","coordinates":[-9.1661879,7.2340108]}},{"type":"Feature","properties":{"amenity":"school","osm_id":"4663795294","osm_type":"nodes"},"geometry":{"type":"Point","coordinates":[-10.7373214,6.3637717]}},{"type":"Feature","properties":{"name":"R.C School","amenity":"school","addr_city":"Jendema","source":"Red Cross Field Survey","osm_id":"4546898161","osm_type":"nodes"},"geometry":{"type":"Point","coordinates":[-11.3903537,7.0226974]}},{"type":"Feature","properties":{"name":"Four Houses","name_en":"Four Houses","amenity":"school","osm_id":"4570005990","osm_type":"nodes"},"geometry":{"type":"Point","coordinates":[-10.0385219,5.9046083]}},{"type":"Feature","properties":{"name":"Eastern Islamic Secondary schools","amenity":"school","addr_city":"Buedu","source":"Red Cross Field Survey","osm_id":"4546903353","osm_type":"nodes"},"geometry":{"type":"Point","coordinates":[-10.3695792,8.2775128]}},{"type":"Feature","properties":{"name":"Roman Catholic Primary school","amenity":"school","addr_city":"Buedu","source":"Red Cross Field Survey","osm_id":"4546903356","osm_type":"nodes"},"geometry":{"type":"Point","coordinates":[-10.3738622,8.2772784]}},{"type":"Feature","properties":{"name":"free Pantecostl Mission Primary School","amenity":"school","addr_city":"Buedu","source":"Red Cross Field Survey","osm_id":"4546926308","osm_type":"nodes"},"geometry":{"type":"Point","coordinates":[-10.3456099,8.4653453]}},{"type":"Feature","properties":{"name":"Kissi Tongi High school","amenity":"school","addr_city":"Buedu","source":"Red Cross Field Survey","osm_id":"4546903354","osm_type":"nodes"},"geometry":{"type":"Point","coordinates":[-10.3670347,8.2835855]}},{"type":"Feature","properties":{"name":"Slmb Primary School","amenity":"school","addr_city":"Koindu","source":"Red Cross Field Survey","osm_id":"4546820540","osm_type":"nodes"},"geometry":{"type":"Point","coordinates":[-10.3431811,8.4699752]}},{"type":"Feature","properties":{"name":"Jimmy Ann's Building","amenity":"school","addr_city":"Koindu","source":"Red Cross Field Survey","osm_id":"4546820541","osm_type":"nodes"},"geometry":{"type":"Point","coordinates":[-10.3352289,8.4618213]}},{"type":"Feature","properties":{"name":"Ansarul Islamic Primary School","amenity":"school","addr_city":"Koindu","source":"Red Cross Field Survey","osm_id":"4546820542","osm_type":"nodes"},"geometry":{"type":"Point","coordinates":[-10.3470397,8.461909]}},{"type":"Feature","properties":{"name":"National Islamic Primary School","amenity":"school","addr_city":"Buedu","source":"Red Cross Field Survey","osm_id":"4546822050","osm_type":"nodes"},"geometry":{"type":"Point","coordinates":[-10.3692576,8.2770909]}},{"type":"Feature","properties":{"name":"Amadiyya Muslim Primary School","amenity":"school","addr_city":"Buedu","source":"Red Cross Field Survey","osm_id":"4546822052","osm_type":"nodes"},"geometry":{"type":"Point","coordinates":[-10.3705499,8.2830763]}},{"type":"Feature","properties":{"name":"Aldura Primary School","amenity":"school","addr_city":"Buedu","source":"Red Cross Field Survey","osm_id":"4546822053","osm_type":"nodes"},"geometry":{"type":"Point","coordinates":[-10.3705646,8.2841467]}},{"type":"Feature","properties":{"name":"Community Pre And Primary School","amenity":"school","addr_city":"Buedu","source":"Red Cross Field Survey","osm_id":"4546822054","osm_type":"nodes"},"geometry":{"type":"Point","coordinates":[-10.3719735,8.279031]}},{"type":"Feature","properties":{"amenity":"school","addr_city":"Nyadenhun","source":"Red Cross Field Survey","osm_id":"4546821534","osm_type":"nodes"},"geometry":{"type":"Point","coordinates":[-10.4850447,8.2036748]}},{"type":"Feature","properties":{"amenity":"school","addr_city":"Nyadenhun","source":"Red Cross Field Survey","osm_id":"4546821535","osm_type":"nodes"},"geometry":{"type":"Point","coordinates":[-10.4847014,8.2025279]}},{"type":"Feature","properties":{"name":"Kenyatahun Public School","amenity":"school","addr_city":"Kenyatahun","source":"Red Cross Field Survey","osm_id":"4192479789","osm_type":"nodes"},"geometry":{"type":"Point","coordinates":[-10.2191619,8.1607817]}},{"type":"Feature","properties":{"name":"École Primaire De Oulimaï","amenity":"school","addr_city":"Oulimaï","source":"Red Cross Field Survey","osm_id":"4515290615","osm_type":"nodes"},"geometry":{"type":"Point","coordinates":[-9.3727654,7.8161225]}},{"type":"Feature","properties":{"name":"Soopa Refugee School","amenity":"school","addr_city":"Soopa","source":"Red Cross Field Survey","osm_id":"4515293747","osm_type":"nodes"},"geometry":{"type":"Point","coordinates":[-9.0552564,7.2591354]}},{"type":"Feature","properties":{"name":"Soopa Refugee School","amenity":"school","addr_city":"Soopa","source":"Red Cross Field Survey","osm_id":"4515293749","osm_type":"nodes"},"geometry":{"type":"Point","coordinates":[-9.0548173,7.2592011]}},{"type":"Feature","properties":{"name":"Central High School Building","amenity":"school","addr_city":"Foya City","source":"Red Cross Field Survey","osm_id":"4192479572","osm_type":"nodes"},"geometry":{"type":"Point","coordinates":[-10.2144527,8.3578545]}},{"type":"Feature","properties":{"name":"Sim Sameuil Elementary Junior High School","amenity":"school","addr_city":"Foya City","source":"Red Cross Field Survey","osm_id":"4192479815","osm_type":"nodes"},"geometry":{"type":"Point","coordinates":[-10.2152252,8.3613468]}},{"type":"Feature","properties":{"name":"Zorzor S.D.A. School","amenity":"school","addr_city":"Zorzor","source":"Red Cross Field Survey","osm_id":"4192479843","osm_type":"nodes"},"geometry":{"type":"Point","coordinates":[-9.4287694,7.7858224]}},{"type":"Feature","properties":{"name":"Salayea Central High School","amenity":"school","addr_city":"Salayea","source":"Red Cross Field Survey","osm_id":"4192479807","osm_type":"nodes"},"geometry":{"type":"Point","coordinates":[-9.4917206,7.6126105]}},{"type":"Feature","properties":{"name":"Musa Dunor Public School","amenity":"school","addr_city":"Popalahun Town","source":"Red Cross Field Survey","osm_id":"4192479798","osm_type":"nodes"},"geometry":{"type":"Point","coordinates":[-10.2302705,8.175834]}},{"type":"Feature","properties":{"name":"Collège","amenity":"college","addr_city":"Koyama","source":"Red Cross Field Survey","osm_id":"4515290819","osm_type":"nodes"},"geometry":{"type":"Point","coordinates":[-9.3631325,7.9001271]}},{"type":"Feature","properties":{"name":"Rev. Elijah Johnson Elementaty School System","amenity":"kindergarten","addr_city":"Monrovia","source":"Open Cities Monrovia - HOT Field Survey","osm_id":"6017294592","osm_type":"nodes"},"geometry":{"type":"Point","coordinates":[-10.79387,6.3286511]}},{"type":"Feature","properties":{"name":"Fanima Islamic School System","amenity":"school","addr_city":"Monrovia","source":"Open Cities Monrovia - HOT Field Survey","osm_id":"6021986996","osm_type":"nodes"},"geometry":{"type":"Point","coordinates":[-10.7966643,6.3278516]}},{"type":"Feature","properties":{"name":"Zolowee Public School","amenity":"school","addr_city":"Zolowee","osm_id":"4100642903","osm_type":"nodes"},"geometry":{"type":"Point","coordinates":[-8.7131306,7.3608061]}},{"type":"Feature","properties":{"name":"Mamekonnedu School","amenity":"school","osm_id":"4099896189","osm_type":"nodes"},"geometry":{"type":"Point","coordinates":[-9.5969044,8.3940044]}},{"type":"Feature","properties":{"name":"Asaph Pre School","amenity":"school","osm_id":"6276247785","osm_type":"nodes"},"geometry":{"type":"Point","coordinates":[-9.1227051,5.806929]}},{"type":"Feature","properties":{"amenity":"toilets","building":"school","addr_city":"Gbarnga","osm_id":"5070399108","osm_type":"nodes"},"geometry":{"type":"Point","coordinates":[-9.4743344,6.9822654]}},{"type":"Feature","properties":{"name":"Guma Public Ele.School","amenity":"school","addr_city":"Vahun","source":"Red Cross Field Survey","osm_id":"4192479582","osm_type":"nodes"},"geometry":{"type":"Point","coordinates":[-10.5069636,8.0622106]}},{"type":"Feature","properties":{"amenity":"school","source":"Bing","osm_id":"3088078456","osm_type":"nodes"},"geometry":{"type":"Point","coordinates":[-10.1794587,6.7093652]}},{"type":"Feature","properties":{"amenity":"school","osm_id":"3065215893","osm_type":"nodes"},"geometry":{"type":"Point","coordinates":[-10.7578688,6.3456208]}},{"type":"Feature","properties":{"name":"Day Care School","amenity":"kindergarten","operator_t":"private","addr_city":"Bolahun","source":"Red Cross Field Survey","osm_id":"4192479577","osm_type":"nodes"},"geometry":{"type":"Point","coordinates":[-10.1581973,8.2316933]}},{"type":"Feature","properties":{"name":"Harbel Elementary","amenity":"school","osm_id":"4266848197","osm_type":"nodes"},"geometry":{"type":"Point","coordinates":[-10.3486056,6.2760975]}},{"type":"Feature","properties":{"name":"St. Mary Catholic School","amenity":"school","osm_id":"7173748085","osm_type":"nodes"},"geometry":{"type":"Point","coordinates":[-10.7875483,6.3716795]}},{"type":"Feature","properties":{"amenity":"school","operator_t":"private","addr_city":"Belefanai","source":"Red Cross Field Survey","osm_id":"4501029883","osm_type":"nodes"},"geometry":{"type":"Point","coordinates":[-9.4369635,7.2614469]}},{"type":"Feature","properties":{"name":"Child Development Center","amenity":"school","operator_t":"private","addr_city":"Foya City","source":"Red Cross Field Survey","osm_id":"4192479573","osm_type":"nodes"},"geometry":{"type":"Point","coordinates":[-10.2152252,8.3588098]}},{"type":"Feature","properties":{"name":"Paws Golden Age School","amenity":"school","operator_t":"private","addr_city":"Foya City","source":"Red Cross Field Survey","osm_id":"4192479804","osm_type":"nodes"},"geometry":{"type":"Point","coordinates":[-10.2101731,8.354894]}},{"type":"Feature","properties":{"name":"Faith and Victory School","amenity":"school","addr_city":"Monrovia","source":"Open Cities Monrovia - HOT Field Survey","osm_id":"6031374617","osm_type":"nodes"},"geometry":{"type":"Point","coordinates":[-10.7848842,6.3329152]}},{"type":"Feature","properties":{"name":"MTS Liberia Children program","amenity":"school","addr_city":"Monrovia","source":"Open Cities Monrovia - HOT Field Survey","osm_id":"6026719009","osm_type":"nodes"},"geometry":{"type":"Point","coordinates":[-10.7835085,6.3333772]}},{"type":"Feature","properties":{"name":"Royal Foundation Day-Care and Primary School","amenity":"school","addr_city":"Monrovia","source":"Open Cities Monrovia - HOT Field Survey","osm_id":"6017294225","osm_type":"nodes"},"geometry":{"type":"Point","coordinates":[-10.7940577,6.3278269]}},{"type":"Feature","properties":{"name":"Falie Public School","amenity":"school","operator_t":"public","source":"WNA Hub - TFiRL project","osm_id":"10706529309","osm_type":"nodes"},"geometry":{"type":"Point","coordinates":[-11.2097051,6.676351]}},{"type":"Feature","properties":{"name":"Mandoe Town Public School","amenity":"school","operator_t":"public","source":"WNA Hub - TFiRL project","osm_id":"10706529471","osm_type":"nodes"},"geometry":{"type":"Point","coordinates":[-11.1853472,6.693777]}},{"type":"Feature","properties":{"name":"Tombey Public School","amenity":"school","operator_t":"public","osm_id":"10706529491","osm_type":"nodes"},"geometry":{"type":"Point","coordinates":[-11.1656028,6.6633317]}},{"type":"Feature","properties":{"name":"Robertsport High School","amenity":"school","operator_t":"public","addr_city":"Robertsports","osm_id":"10706576039","osm_type":"nodes"},"geometry":{"type":"Point","coordinates":[-11.3720227,6.7535234]}},{"type":"Feature","properties":{"amenity":"school","operator_t":"private","addr_city":"Belefanai","osm_id":"4192479847","osm_type":"nodes"},"geometry":{"type":"Point","coordinates":[-9.4374945,7.2621301]}},{"type":"Feature","properties":{"name":"Jafaria Islamic And English School","amenity":"school","operator_t":"private","addr_city":"Bo Waterside","source":"Red Cross Field Survey","osm_id":"4192479586","osm_type":"nodes"},"geometry":{"type":"Point","coordinates":[-11.3738108,7.0119109]}},{"type":"Feature","properties":{"name":"S D A Community Mention School","amenity":"school","operator_t":"private","addr_city":"Salayea","source":"Red Cross Field Survey","osm_id":"4192479806","osm_type":"nodes"},"geometry":{"type":"Point","coordinates":[-9.4905055,7.6178822]}},{"type":"Feature","properties":{"name":"United Christian School","amenity":"school","operator_t":"private","addr_city":"Belefanai","source":"Red Cross Field Survey","osm_id":"4192479829","osm_type":"nodes"},"geometry":{"type":"Point","coordinates":[-9.437596,7.2612876]}},{"type":"Feature","properties":{"name":"Chrys Johnson's Day Care School","amenity":"school","operator_t":"private","addr_city":"Salayea","source":"Red Cross Field Survey","osm_id":"4501029536","osm_type":"nodes"},"geometry":{"type":"Point","coordinates":[-9.4915006,7.613402]}},{"type":"Feature","properties":{"name":"Slum Community Academy Liberia","amenity":"school","operator_t":"private","addr_city":"Monrovia","source":"Open Cities Monrovia - HOT Field Survey","osm_id":"6010149260","osm_type":"nodes"},"geometry":{"type":"Point","coordinates":[-10.7851253,6.331901]}},{"type":"Feature","properties":{"amenity":"school","osm_id":"7067134205","osm_type":"nodes"},"geometry":{"type":"Point","coordinates":[-9.7264302,5.8325429]}},{"type":"Feature","properties":{"name":"Brother J.K. Foundation School","amenity":"school","osm_id":"5257356721","osm_type":"nodes"},"geometry":{"type":"Point","coordinates":[-8.9821212,7.217309]}},{"type":"Feature","properties":{"name":"Barrya Wallace Baptist School","amenity":"school","addr_city":"Ganta","osm_id":"5023101536","osm_type":"nodes"},"geometry":{"type":"Point","coordinates":[-8.9845728,7.2252065]}},{"type":"Feature","properties":{"amenity":"toilets","building":"school","addr_city":"Ganta","osm_id":"5039874558","osm_type":"nodes"},"geometry":{"type":"Point","coordinates":[-9.0205058,7.1980471]}},{"type":"Feature","properties":{"name":"Joy Foundation Day Care and Elementry School","amenity":"school","addr_city":"Ganta","osm_id":"4888554707","osm_type":"nodes"},"geometry":{"type":"Point","coordinates":[-8.9950997,7.2354192]}},{"type":"Feature","properties":{"name":"Yu a Kpe Foundation School","amenity":"school","osm_id":"5248497924","osm_type":"nodes"},"geometry":{"type":"Point","coordinates":[-7.7185136,4.3749433]}},{"type":"Feature","properties":{"name":"Tubman University Laboratory","amenity":"school","osm_id":"6440517290","osm_type":"nodes"},"geometry":{"type":"Point","coordinates":[-7.6954273,4.3991312]}},{"type":"Feature","properties":{"name":"Ephesus Elementary School","amenity":"kindergarten","addr_city":"Monrovia","source":"Open Cities Monrovia - HOT Field Survey","osm_id":"6021987088","osm_type":"nodes"},"geometry":{"type":"Point","coordinates":[-10.7950283,6.3289773]}},{"type":"Feature","properties":{"name":"Stanley Jeh Community School","amenity":"school","osm_id":"5248563623","osm_type":"nodes"},"geometry":{"type":"Point","coordinates":[-7.6438727,4.5747925]}},{"type":"Feature","properties":{"name":"Nazareth Preparatory School","amenity":"school","osm_id":"5248438846","osm_type":"nodes"},"geometry":{"type":"Point","coordinates":[-7.6694495,4.5838865]}},{"type":"Feature","properties":{"name":"Lefelia Foundation School","amenity":"school","osm_id":"5248497923","osm_type":"nodes"},"geometry":{"type":"Point","coordinates":[-7.6695782,4.583601]}},{"type":"Feature","properties":{"amenity":"school","addr_city":"Monrovia","source":"Open Cities Monrovia - HOT Field Survey","osm_id":"6296183470","osm_type":"nodes"},"geometry":{"type":"Point","coordinates":[-10.7865867,6.3306607]}},{"type":"Feature","properties":{"name":"Early Breed Foundation School","amenity":"school","addr_city":"Monrovia","source":"Open Cities Monrovia - HOT Field Survey","osm_id":"6296183475","osm_type":"nodes"},"geometry":{"type":"Point","coordinates":[-10.7953535,6.3279896]}},{"type":"Feature","properties":{"amenity":"school","addr_city":"Gofor","osm_id":"4546896807","osm_type":"nodes"},"geometry":{"type":"Point","coordinates":[-11.3604657,7.2458564]}},{"type":"Feature","properties":{"name":"Technocrat Institue of Professional Studies and Humanity Network Liberia","amenity":"college","addr_city":"Monrovia","source":"Open Cities Monrovia - HOT Field Survey","osm_id":"6021986993","osm_type":"nodes"},"geometry":{"type":"Point","coordinates":[-10.7970716,6.3284002]}},{"type":"Feature","properties":{"name":"l'école","amenity":"school","osm_id":"8901974918","osm_type":"nodes"},"geometry":{"type":"Point","coordinates":[-8.5061388,7.6980462]}},{"type":"Feature","properties":{"name":"Christian Academy Elementary School","amenity":"school","osm_id":"5253558022","osm_type":"nodes"},"geometry":{"type":"Point","coordinates":[-7.6885987,4.3893465]}},{"type":"Feature","properties":{"name":"Free Pentecostal College","amenity":"college","addr_city":"Voinjama City","source":"Red Cross Field Survey","osm_id":"4192479580","osm_type":"nodes"},"geometry":{"type":"Point","coordinates":[-9.7574647,8.4174035]}},{"type":"Feature","properties":{"name":"EPP NEKA V2","amenity":"school","osm_id":"10739305155","osm_type":"nodes"},"geometry":{"type":"Point","coordinates":[-7.4003441,5.2338377]}},{"type":"Feature","properties":{"name":"Kpallan Public School","amenity":"school","operator_t":"public","source":"WNA Hub - TFiRL project","osm_id":"10723357637","osm_type":"nodes"},"geometry":{"type":"Point","coordinates":[-11.2667175,6.7854152]}},{"type":"Feature","properties":{"name":"Edwin School System","amenity":"school","operator_t":"private","addr_city":"Robertsports","source":"WNA Hub - TFiRL project","osm_id":"10706575952","osm_type":"nodes"},"geometry":{"type":"Point","coordinates":[-11.3556124,6.7566554]}},{"type":"Feature","properties":{"name":"Robertsport Preparatory School","amenity":"school","addr_city":"Robertsports","source":"WNA Hub - TFiRL project","osm_id":"10706575976","osm_type":"nodes"},"geometry":{"type":"Point","coordinates":[-11.3549864,6.7587161]}},{"type":"Feature","properties":{"name":"Islamic Model","amenity":"school","operator_t":"public","addr_city":"Robertsports","source":"WNA Hub - TFiRL project","osm_id":"10706575237","osm_type":"nodes"},"geometry":{"type":"Point","coordinates":[-11.3577947,6.757373]}},{"type":"Feature","properties":{"name":"Early Childhood Educational Foundation","amenity":"school","operator_t":"private","addr_city":"Robertsports","source":"WNA HUB - TFiRL project","osm_id":"10706575421","osm_type":"nodes"},"geometry":{"type":"Point","coordinates":[-11.3695792,6.7551689]}},{"type":"Feature","properties":{"name":"Kpallan Public School","amenity":"school","operator_t":"public","source":"WNA Hub - TFiRL project","osm_id":"10719341696","osm_type":"nodes"},"geometry":{"type":"Point","coordinates":[-11.2667175,6.7854152]}},{"type":"Feature","properties":{"name":"Antoinette Tubman Elementary School","amenity":"school","operator_t":"public","source":"WNA Hub - TFiRL project","osm_id":"10719371928","osm_type":"nodes"},"geometry":{"type":"Point","coordinates":[-11.3079307,6.771248]}},{"type":"Feature","properties":{"name":"Weijing Broyant","amenity":"school","operator_t":"public","source":"WNA Hub - TFiRL project","osm_id":"10719372047","osm_type":"nodes"},"geometry":{"type":"Point","coordinates":[-11.3042242,6.8137674]}},{"type":"Feature","properties":{"name":"Tosor Public School","amenity":"school","operator_t":"public","source":"WNA Hub - TFiRL project","osm_id":"10706529006","osm_type":"nodes"},"geometry":{"type":"Point","coordinates":[-11.3388576,6.7436638]}},{"type":"Feature","properties":{"name":"Sembehun Public School","amenity":"school","operator_t":"public","source":"WNA Hub - TFiRL project","osm_id":"10706529108","osm_type":"nodes"},"geometry":{"type":"Point","coordinates":[-11.3343447,6.7059775]}},{"type":"Feature","properties":{"name":"Latia Public School","amenity":"school","operator_t":"public","source":"WNA Hub - TFiRL project","osm_id":"10706529165","osm_type":"nodes"},"geometry":{"type":"Point","coordinates":[-11.2686383,6.6919953]}},{"type":"Feature","properties":{"name":"Robertsport High School","amenity":"school","operator_t":"public","addr_city":"Robertsports","source":"WNA Hub - TFiRL project","osm_id":"10706576016","osm_type":"nodes"},"geometry":{"type":"Point","coordinates":[-11.372112,6.753698]}},{"type":"Feature","properties":{"name":"Government Demonstration Elementary School","amenity":"school","operator_t":"public","addr_city":"Robertsports","source":"WNA Hub - TFiRL project","osm_id":"10706576029","osm_type":"nodes"},"geometry":{"type":"Point","coordinates":[-11.3725962,6.7533618]}},{"type":"Feature","properties":{"name":"Urias B. Freeman United Methodist school","amenity":"school","operator_t":"religious","addr_city":"Robertsports","source":"WNA Hub - TFiRL project","osm_id":"10706576116","osm_type":"nodes"},"geometry":{"type":"Point","coordinates":[-11.3741945,6.753772]}},{"type":"Feature","properties":{"name":"Urias B. Freeman United Methodist school","amenity":"school","operator_t":"religious","addr_city":"Robertsports","source":"WNA Hub - TFiRL project","osm_id":"10706576117","osm_type":"nodes"},"geometry":{"type":"Point","coordinates":[-11.3741859,6.7536145]}},{"type":"Feature","properties":{"name":"Urias B. Freeman United Methodist school","amenity":"school","operator_t":"religious","addr_city":"Robertsports","source":"WNA Hub - TFiRL project","osm_id":"10706576136","osm_type":"nodes"},"geometry":{"type":"Point","coordinates":[-11.374323,6.753827]}},{"type":"Feature","properties":{"name":"École de Bossou","amenity":"school","osm_id":"8901991919","osm_type":"nodes"},"geometry":{"type":"Point","coordinates":[-8.5053212,7.6503466]}},{"type":"Feature","properties":{"name":"Children Hope","amenity":"kindergarten","operator_t":"public","addr_city":"Robertsports","source":"WNA Hub - TFiRL project","osm_id":"10706576053","osm_type":"nodes"},"geometry":{"type":"Point","coordinates":[-11.3723985,6.7549127]}},{"type":"Feature","properties":{"name":"Academic Building","amenity":"university","operator_t":"public","osm_id":"10155854393","osm_type":"nodes"},"geometry":{"type":"Point","coordinates":[-10.6174249,6.3827277]}},{"type":"Feature","properties":{"name":"Science Building","amenity":"university","operator_t":"public","osm_id":"10155854394","osm_type":"nodes"},"geometry":{"type":"Point","coordinates":[-10.6181786,6.3816369]}},{"type":"Feature","properties":{"name":"Engineering Building","amenity":"university","operator_t":"public","osm_id":"10155854395","osm_type":"nodes"},"geometry":{"type":"Point","coordinates":[-10.6189425,6.3808345]}},{"type":"Feature","properties":{"name":"École primaire de Niaguezavou","amenity":"school","osm_id":"12364655212","osm_type":"nodes"},"geometry":{"type":"Point","coordinates":[-9.7824473,8.5892857]}},{"type":"Feature","properties":{"name":"École primaire de Gozombou","amenity":"school","osm_id":"12364657674","osm_type":"nodes"},"geometry":{"type":"Point","coordinates":[-9.8419665,8.5767159]}},{"type":"Feature","properties":{"name":"École primaire de Kokouelassou","amenity":"school","osm_id":"12364604688","osm_type":"nodes"},"geometry":{"type":"Point","coordinates":[-9.9322031,8.5259159]}},{"type":"Feature","properties":{"name":"Collège de Tekoulo","amenity":"school","osm_id":"12364631493","osm_type":"nodes"},"geometry":{"type":"Point","coordinates":[-9.9587973,8.541498]}},{"type":"Feature","properties":{"name":"École primaire de Tekoulo centre","amenity":"school","osm_id":"12364654514","osm_type":"nodes"},"geometry":{"type":"Point","coordinates":[-9.9513029,8.546466]}},{"type":"Feature","properties":{"name":"École primaire de Tekoulo 2","amenity":"school","osm_id":"12364635756","osm_type":"nodes"},"geometry":{"type":"Point","coordinates":[-9.9564943,8.5404423]}},{"type":"Feature","properties":{"name":"École primaire de Heremakono","amenity":"school","osm_id":"12364647971","osm_type":"nodes"},"geometry":{"type":"Point","coordinates":[-10.1323446,8.5547847]}},{"type":"Feature","properties":{"name":"École primaire de Farako","amenity":"school","osm_id":"12364652185","osm_type":"nodes"},"geometry":{"type":"Point","coordinates":[-10.1192161,8.5663058]}},{"type":"Feature","properties":{"name":"Roman Catholic","amenity":"school","addr_city":"Nyadenhun","source":"Red Cross Field Survey","osm_id":"4546821536","osm_type":"nodes"},"geometry":{"type":"Point","coordinates":[-10.4852778,8.203317]}},{"type":"Feature","properties":{"name":"Roman Catholic primary school","amenity":"school","addr_city":"Buedu","source":"Red Cross Field Survey","osm_id":"4546926307","osm_type":"nodes"},"geometry":{"type":"Point","coordinates":[-10.3440726,8.4659444]}}]}
