{"type":"FeatureCollection","name":"Liberia_Health_Facilities_Points","crs":{"type":"name","properties":{"name":"urn:ogc:def:crs:OGC:1.3:CRS84"}},"features":[{"type":"Feature","properties":{"osm_id":"7687734928","amenity":"clinic","name":"Gbarnla clinic","source":"MoH & NPHIL","operator_t":"public","operationa":"functional","changeset_":"163585684","changeset__1":"2","changeset__2":"2025-03-13 19:39:02+00:00","changeset__3":"mneko"},"geometry":{"type":"Point","coordinates":[-9.748394831015105,7.00501988391602]}},{"type":"Feature","properties":{"osm_id":"4131217620","amenity":"clinic","healthcare":"clinic","name":"Kaibeh Whisnant","source":"Red Cross Field Survey","dispensing":"no","addr_city":"L P M C Camp","changeset_":"164210052","changeset__1":"6","changeset__2":"2025-03-28 14:20:41+00:00","changeset__3":"Johnwhelan"},"geometry":{"type":"Point","coordinates":[-9.787445112072135,8.396299637541432]}},{"type":"Feature","properties":{"osm_id":"4131217589","amenity":"clinic","healthcare":"clinic","name":"Borkeza Clinic","operator":"government","source":"Red Cross Field Survey","speciality":"Toto Massa/PICS","addr_city":"Borkeza","changeset_":"164210052","changeset__1":"5","changeset__2":"2025-03-28 14:20:41+00:00","changeset__3":"Johnwhelan"},"geometry":{"type":"Point","coordinates":[-9.458541913752441,7.903510953802225]}},{"type":"Feature","properties":{"osm_id":"4131217660","amenity":"doctors","healthcare":"alternative","name":"Yarkpawolo Subah","operator":"private_profit","source":"Red Cross Field Survey","speciality":"Harpawolobah Subah","opening_ho":"\"by appointment\"","dispensing":"no","emergency":"yes","water_sour":"pump_water","electricit":"none","addr_city":"Rims Town","changeset_":"164210052","changeset__1":"4","changeset__2":"2025-03-28 14:20:41+00:00","changeset__3":"Johnwhelan"},"geometry":{"type":"Point","coordinates":[-9.50935368134256,7.913712651973754]}},{"type":"Feature","properties":{"osm_id":"3198032310","amenity":"hospital","healthcare":"hospital","name":"Lofa (Foya) ETU","operator":"MSF","source":"UNMEER;https://data.hdx.rwlabs.org/dataset/ebola-treatment-centers","operationa":"open","changeset_":"164210052","changeset__1":"5","changeset__2":"2025-03-28 14:20:41+00:00","changeset__3":"Johnwhelan"},"geometry":{"type":"Point","coordinates":[-10.205769303293948,8.378864692207287]}},{"type":"Feature","properties":{"osm_id":"4131217593","amenity":"clinic","healthcare":"clinic","name":"David F.Congor Jr.","operator":"government","source":"Red Cross Field Survey","speciality":"OIC","opening_ho":"Mo-Fr 08:00-17:00","dispensing":"yes","emergency":"yes","water_sour":"protected_well","electricit":"solar","addr_city":"Larmoth","changeset_":"164210052","changeset__1":"5","changeset__2":"2025-03-28 14:20:41+00:00","changeset__3":"Johnwhelan"},"geometry":{"type":"Point","coordinates":[-9.49356083465915,7.378810185386641]}},{"type":"Feature","properties":{"osm_id":"4131217621","amenity":"clinic","name":"Kamatahun Health Center.","operator":"ngo","source":"Red Cross Field Survey","opening_ho":"Mo-Fr 08:00-17:00, Sa, Su","dispensing":"yes","emergency":"yes","water_sour":"pub_tap","electricit":"generator","addr_city":"Kamatahun","changeset_":"164210052","changeset__1":"4","changeset__2":"2025-03-28 14:20:41+00:00","changeset__3":"Johnwhelan"},"geometry":{"type":"Point","coordinates":[-10.296142145120456,8.1363655883805]}},{"type":"Feature","properties":{"osm_id":"4131217631","amenity":"clinic","name":"Lemgbagba Health Center","operator":"ngo","source":"Red Cross Field Survey","opening_ho":"Mo-Fr 08:00-17:00, Sa, Su","dispensing":"yes","emergency":"yes","water_sour":"unprotected_spring","electricit":"solar","addr_city":"Lemgbaga","changeset_":"164210052","changeset__1":"3","changeset__2":"2025-03-28 14:20:41+00:00","changeset__3":"Johnwhelan"},"geometry":{"type":"Point","coordinates":[-10.329895063371822,8.153719564529979]}},{"type":"Feature","properties":{"osm_id":"4131217619","amenity":"doctors","healthcare":"alternative","name":"Joseph Wer","operator":"private_profit","source":"Red Cross Field Survey","speciality":"snake bite","opening_ho":"24/7","dispensing":"yes","emergency":"yes","water_sour":"unprotected_well","electricit":"flash_light","addr_city":"Bassa","changeset_":"164210052","changeset__1":"5","changeset__2":"2025-03-28 14:20:41+00:00","changeset__3":"Johnwhelan"},"geometry":{"type":"Point","coordinates":[-11.100468232546405,7.308071281191843]}},{"type":"Feature","properties":{"osm_id":"4131212883","amenity":"clinic","healthcare":"clinic","name":"Bazewen Clinic","source":"Red Cross Field Survey","opening_ho":"Mo-Fr 08:00-17:00","water_sour":"protected_well","electricit":"solar","addr_city":"Barzawon","changeset_":"164210052","changeset__1":"5","changeset__2":"2025-03-28 14:20:41+00:00","changeset__3":"Johnwhelan"},"geometry":{"type":"Point","coordinates":[-9.649731951673886,8.155048766735234]}},{"type":"Feature","properties":{"osm_id":"4131217622","amenity":"doctors","healthcare":"alternative","name":"Kenyha Sambollah","source":"Red Cross Field Survey","opening_ho":"24/7","emergency":"no","electricit":"none","addr_city":"Korma","changeset_":"164210052","changeset__1":"4","changeset__2":"2025-03-28 14:20:41+00:00","changeset__3":"Johnwhelan"},"geometry":{"type":"Point","coordinates":[-11.370163007952868,6.975501922243097]}},{"type":"Feature","properties":{"osm_id":"4131217629","healthcare":"alternative","name":"Krubo Sevelee","operator":"private_np","source":"Red Cross Field Survey","speciality":"traditional healer","opening_ho":"\"by appointment\"","dispensing":"yes","emergency":"yes","water_sour":"unprotected_spring","electricit":"none","addr_city":"Benewolor","changeset_":"164210052","changeset__1":"4","changeset__2":"2025-03-28 14:20:41+00:00","changeset__3":"Johnwhelan"},"geometry":{"type":"Point","coordinates":[-9.458541913752441,7.843655867059198]}},{"type":"Feature","properties":{"osm_id":"7741894503","amenity":"clinic","healthcare":"clinic","name":"Gblebo Clinic","source":"Ministry of Health and national :Public Institute","operator_t":"government","operationa":"functional","changeset_":"164210052","changeset__1":"3","changeset__2":"2025-03-28 14:20:41+00:00","changeset__3":"Johnwhelan"},"geometry":{"type":"Point","coordinates":[-7.955651922591755,4.732653579430064]}},{"type":"Feature","properties":{"osm_id":"4131217603","amenity":"clinic","healthcare":"clinic","name":"Foya Tengia Clinic","operator":"combination","source":"Red Cross Field Survey","opening_ho":"24/7","dispensing":"yes","emergency":"yes","water_sour":"pub_tap","electricit":"solar","addr_city":"Foya Tengia","changeset_":"164210052","changeset__1":"6","changeset__2":"2025-03-28 14:20:41+00:00","changeset__3":"Johnwhelan"},"geometry":{"type":"Point","coordinates":[-10.279582270477647,8.277175694363308]}},{"type":"Feature","properties":{"osm_id":"4131217627","amenity":"clinic","name":"Kpaiyea Clinic","operator":"ngo","source":"Red Cross Field Survey","opening_ho":"Mo-Fr 08:00-17:00","dispensing":"yes","emergency":"yes","water_sour":"surface_water","electricit":"solar","addr_city":"Kpaiyea","changeset_":"164210052","changeset__1":"3","changeset__2":"2025-03-28 14:20:41+00:00","changeset__3":"Johnwhelan"},"geometry":{"type":"Point","coordinates":[-9.384384282710272,7.716435089234494]}},{"type":"Feature","properties":{"osm_id":"4131217662","amenity":"clinic","name":"Yarpuah Clinic","operator":"ngo","source":"Red Cross Field Survey","opening_ho":"Mo-Fr 08:00-17:00","dispensing":"no","emergency":"yes","water_sour":"protected_well","electricit":"solar","addr_city":"Yarpuah","changeset_":"164210052","changeset__1":"4","changeset__2":"2025-03-28 14:20:41+00:00","changeset__3":"Johnwhelan"},"geometry":{"type":"Point","coordinates":[-9.422981102805608,7.655104452256808]}},{"type":"Feature","properties":{"osm_id":"4131217623","amenity":"clinic","healthcare":"clinic","name":"Kiantahun Clinic","operator":"ngo","source":"Red Cross Field Survey","opening_ho":"Mo-Fr 08:00-17:00","dispensing":"yes","emergency":"yes","water_sour":"pub_tap","electricit":"solar","addr_city":"Kiantahun","changeset_":"164210052","changeset__1":"5","changeset__2":"2025-03-28 14:20:41+00:00","changeset__3":"Johnwhelan"},"geometry":{"type":"Point","coordinates":[-10.21758560747378,8.164084961270447]}},{"type":"Feature","properties":{"osm_id":"4131217653","amenity":"doctors","healthcare":"alternative","name":"Traditional Health","operator":"private_profit","source":"Red Cross Field Survey","opening_ho":"\"by appointment\"","dispensing":"no","water_sour":"pump_water","electricit":"none","addr_city":"Zelemai","changeset_":"164210052","changeset__1":"4","changeset__2":"2025-03-28 14:20:41+00:00","changeset__3":"Johnwhelan"},"geometry":{"type":"Point","coordinates":[-9.510040326850515,7.880386121136809]}},{"type":"Feature","properties":{"osm_id":"4131217678","amenity":"doctors","healthcare":"alternative","operator":"private_np","source":"Red Cross Field Survey","emergency":"yes","water_sour":"pump_water","electricit":"flash_light","addr_city":"Gonbu","changeset_":"164210052","changeset__1":"4","changeset__2":"2025-03-28 14:20:41+00:00","changeset__3":"Johnwhelan"},"geometry":{"type":"Point","coordinates":[-9.486694379579404,7.876305140119712]}},{"type":"Feature","properties":{"osm_id":"4131217602","healthcare":"alternative","name":"Forma Subah","operator":"private_np","source":"Red Cross Field Survey","opening_ho":"\"by appointment\"","dispensing":"no","emergency":"no","water_sour":"protected_well","electricit":"none","addr_city":"Morris Subah","changeset_":"164210052","changeset__1":"4","changeset__2":"2025-03-28 14:20:41+00:00","changeset__3":"Johnwhelan"},"geometry":{"type":"Point","coordinates":[-9.522399945994067,7.916433166286765]}},{"type":"Feature","properties":{"osm_id":"4131217617","amenity":"clinic","name":"Joseph M. Pewee","operator":"community_facility","source":"Red Cross Field Survey","speciality":"Joseph M.Pewee","opening_ho":"\"by appointment\"","water_sour":"hand_pump","electricit":"none","addr_city":"Woizi","changeset_":"164210052","changeset__1":"4","changeset__2":"2025-03-28 14:20:41+00:00","changeset__3":"Johnwhelan"},"geometry":{"type":"Point","coordinates":[-9.554672201049812,7.832091858164887]}},{"type":"Feature","properties":{"osm_id":"4131217609","amenity":"clinic","healthcare":"clinic","name":"Gbalatuah Clinic","operator":"government","source":"Red Cross Field Survey","speciality":"nurses","operationa":"functional","opening_ho":"Mo-Fr 08:00-17:00","dispensing":"yes","emergency":"yes","water_sour":"piped","electricit":"solar","addr_postc":"1000","addr_city":"Gbalatuah","changeset_":"164210052","changeset__1":"6","changeset__2":"2025-03-28 14:20:41+00:00","changeset__3":"Johnwhelan"},"geometry":{"type":"Point","coordinates":[-9.511754258411457,7.311384731335352]}},{"type":"Feature","properties":{"osm_id":"4131217616","amenity":"doctors","healthcare":"alternative","name":"Joseph Johnson","operator":"government","source":"Red Cross Field Survey","speciality":"OIC","opening_ho":"Mo-Fr 08:00-17:00, Sa, Su","dispensing":"yes","water_sour":"protected_well","electricit":"solar","addr_city":"Jammy Kparyarkolleh Village","changeset_":"164210052","changeset__1":"4","changeset__2":"2025-03-28 14:20:41+00:00","changeset__3":"Johnwhelan"},"geometry":{"type":"Point","coordinates":[-9.490814252627246,7.396514776545871]}},{"type":"Feature","properties":{"osm_id":"4131217632","amenity":"doctors","healthcare":"alternative","name":"Livela Menyea","operator":"private_np","source":"Red Cross Field Survey","speciality":"Livela manyea","opening_ho":"\"by appointment\"","dispensing":"no","emergency":"yes","water_sour":"unprotected_spring","electricit":"flash_light","addr_city":"Zulor","changeset_":"164210052","changeset__1":"4","changeset__2":"2025-03-28 14:20:41+00:00","changeset__3":"Johnwhelan"},"geometry":{"type":"Point","coordinates":[-9.517593427438243,7.909632090051787]}},{"type":"Feature","properties":{"osm_id":"4131217643","amenity":"clinic","healthcare":"clinic","name":"Popalahun Clinic","operator":"combination","source":"Red Cross Field Survey","opening_ho":"Mo-Fr 08:00-17:00","dispensing":"yes","emergency":"yes","water_sour":"pub_tap","electricit":"none","addr_city":"Popalahun","changeset_":"164210052","changeset__1":"4","changeset__2":"2025-03-28 14:20:41+00:00","changeset__3":"Johnwhelan"},"geometry":{"type":"Point","coordinates":[-10.23209107764876,8.175745697327386]}},{"type":"Feature","properties":{"osm_id":"4131217645","amenity":"clinic","healthcare":"clinic","name":"Salayea Clinic","operator":"government","source":"Red Cross Field Survey","speciality":"general practice","opening_ho":"Mo-Fr 08:00-17:00","dispensing":"yes","emergency":"yes","water_sour":"protected_well","electricit":"solar","addr_city":"Salayea","changeset_":"164210052","changeset__1":"5","changeset__2":"2025-03-28 14:20:41+00:00","changeset__3":"Johnwhelan"},"geometry":{"type":"Point","coordinates":[-9.49169938160236,7.619128066550616]}},{"type":"Feature","properties":{"osm_id":"4131217624","amenity":"doctors","healthcare":"alternative","name":"Kokulo Plazuwu","operator":"private_np","source":"Red Cross Field Survey","opening_ho":"\"by appointment\"","dispensing":"no","emergency":"yes","water_sour":"pump_water","electricit":"flash_light","addr_city":"Borkeza","changeset_":"164210052","changeset__1":"5","changeset__2":"2025-03-28 14:20:41+00:00","changeset__3":"Johnwhelan"},"geometry":{"type":"Point","coordinates":[-9.458976347793936,7.90669373007529]}},{"type":"Feature","properties":{"osm_id":"4131217655","amenity":"clinic","name":"Vahun Health Center","operator":"ngo","source":"Red Cross Field Survey","opening_ho":"Mo-Fr 08:00-17:00, Sa, Su","dispensing":"yes","emergency":"yes","water_sour":"pub_tap","electricit":"generator","addr_city":"Vahun","changeset_":"164210052","changeset__1":"3","changeset__2":"2025-03-28 14:20:41+00:00","changeset__3":"Johnwhelan"},"geometry":{"type":"Point","coordinates":[-10.499603876021126,8.062352628987071]}},{"type":"Feature","properties":{"osm_id":"4131217596","amenity":"pharmacy","healthcare":"pharmacy","name":"Drug Store","operator":"private_profit","source":"Red Cross Field Survey","speciality":"pharmacy","opening_ho":"24/7","dispensing":"yes","emergency":"yes","water_sour":"pub_tap","electricit":"generator","addr_city":"Town","changeset_":"164210052","changeset__1":"4","changeset__2":"2025-03-28 14:20:41+00:00","changeset__3":"Johnwhelan"},"geometry":{"type":"Point","coordinates":[-11.10099796882696,7.263713159950186]}},{"type":"Feature","properties":{"osm_id":"4131217625","amenity":"clinic","healthcare":"clinic","name":"Korworhun Clinic","operator":"government","source":"Red Cross Field Survey","opening_ho":"Mo-Fr 08:00-17:00","dispensing":"yes","emergency":"yes","water_sour":"piped","electricit":"solar","addr_city":"Korworhun","changeset_":"164210052","changeset__1":"5","changeset__2":"2025-03-28 14:20:41+00:00","changeset__3":"Johnwhelan"},"geometry":{"type":"Point","coordinates":[-10.150680501971522,8.315456265251896]}},{"type":"Feature","properties":{"osm_id":"4131217673","amenity":"doctors","healthcare":"doctor","source":"Red Cross Field Survey","speciality":"OIC","opening_ho":"Mo-Fr 08:00-17:00, Sa, Su","dispensing":"yes","emergency":"yes","water_sour":"protected_well","electricit":"solar","addr_city":"Kpadeyea","changeset_":"164210052","changeset__1":"5","changeset__2":"2025-03-28 14:20:41+00:00","changeset__3":"Johnwhelan"},"geometry":{"type":"Point","coordinates":[-9.621824069781525,7.497770346176736]}},{"type":"Feature","properties":{"osm_id":"4131217597","amenity":"clinic","healthcare":"clinic","name":"Esther Y.Barkolleh","operator":"ngo","source":"Red Cross Field Survey","speciality":"OIC","opening_ho":"Mo-Fr 08:00-17:00, Sa, Su","dispensing":"yes","emergency":"yes","water_sour":"tubewell","electricit":"solar","addr_city":"Gbonyea","changeset_":"164210052","changeset__1":"5","changeset__2":"2025-03-28 14:20:41+00:00","changeset__3":"Johnwhelan"},"geometry":{"type":"Point","coordinates":[-9.553985639360889,7.504769570602775]}},{"type":"Feature","properties":{"osm_id":"4131217605","amenity":"clinic","name":"Gahnmue Clinic","operator":"government","source":"Red Cross Field Survey","speciality":"OIC","operationa":"functional","opening_ho":"24/7","dispensing":"yes","emergency":"yes","water_sour":"piped","electricit":"generator","addr_postc":"1000","addr_city":"Gahnmue","changeset_":"164210052","changeset__1":"6","changeset__2":"2025-03-28 14:20:41+00:00","changeset__3":"Johnwhelan"},"geometry":{"type":"Point","coordinates":[-9.166220023091,7.233562532225704]}},{"type":"Feature","properties":{"osm_id":"4131217640","amenity":"doctors","healthcare":"alternative","name":"Mulbah Kowah","operator":"private_np","source":"Red Cross Field Survey","speciality":"tradition activities","opening_ho":"\"by appointment\"","dispensing":"no","emergency":"yes","water_sour":"pump_water","electricit":"chanies_light","addr_city":"Zulor","changeset_":"164210052","changeset__1":"4","changeset__2":"2025-03-28 14:20:41+00:00","changeset__3":"Johnwhelan"},"geometry":{"type":"Point","coordinates":[-9.517593427438243,7.913032544350244]}},{"type":"Feature","properties":{"osm_id":"4131217674","amenity":"doctors","healthcare":"doctor","source":"Red Cross Field Survey","speciality":"OIC","opening_ho":"Mo-Fr 08:00-17:00, Sa, Su","dispensing":"yes","emergency":"yes","water_sour":"protected_well","electricit":"solar","changeset_":"164210052","changeset__1":"5","changeset__2":"2025-03-28 14:20:41+00:00","changeset__3":"Johnwhelan"},"geometry":{"type":"Point","coordinates":[-9.47982792449966,7.520426881911845]}},{"type":"Feature","properties":{"osm_id":"4131217644","amenity":"doctors","healthcare":"alternative","name":"Saigbeh Fofei","operator":"private_profit","source":"Red Cross Field Survey","opening_ho":"24/7","dispensing":"yes","emergency":"yes","water_sour":"tubewell","electricit":"lamp","addr_city":"Kpelleh","changeset_":"164210052","changeset__1":"4","changeset__2":"2025-03-28 14:20:41+00:00","changeset__3":"Johnwhelan"},"geometry":{"type":"Point","coordinates":[-11.10099796882696,7.307984779951084]}},{"type":"Feature","properties":{"osm_id":"4131212880","amenity":"clinic","healthcare":"clinic","name":"Balahun Faith Clinic","operator":"private_np","source":"Red Cross Field Survey","emergency":"yes","addr_city":"Balahun","changeset_":"164210052","changeset__1":"5","changeset__2":"2025-03-28 14:20:41+00:00","changeset__3":"Johnwhelan"},"geometry":{"type":"Point","coordinates":[-10.066909833817675,8.331762168228579]}},{"type":"Feature","properties":{"osm_id":"4131217661","amenity":"clinic","name":"Yarpuah Clinic","operator":"ngo","source":"Red Cross Field Survey","speciality":"Malaral","dispensing":"yes","emergency":"yes","electricit":"solar","addr_city":"Yarpuah","changeset_":"164210052","changeset__1":"4","changeset__2":"2025-03-28 14:20:41+00:00","changeset__3":"Johnwhelan"},"geometry":{"type":"Point","coordinates":[-9.422627135034588,7.655035385374646]}},{"type":"Feature","properties":{"osm_id":"4131217618","amenity":"clinic","healthcare":"clinic","name":"Joseph T.Morris","operator":"government","source":"Red Cross Field Survey","speciality":"OIC","opening_ho":"Mo-Fr 08:00-17:00","dispensing":"yes","emergency":"yes","water_sour":"protected_well","electricit":"solar","addr_city":"Ganglota","changeset_":"164210052","changeset__1":"5","changeset__2":"2025-03-28 14:20:41+00:00","changeset__3":"Johnwhelan"},"geometry":{"type":"Point","coordinates":[-9.492874105332135,7.423070238361163]}},{"type":"Feature","properties":{"osm_id":"3198032315","amenity":"hospital","healthcare":"hospital","name":"Montserrado (Island Clinic) ETU","operator":"MoH/WHO/AU","source":"UNMEER ; https://data.hdx.rwlabs.org/dataset/ebola-treatment-centers","operationa":"open","changeset_":"164210052","changeset__1":"3","changeset__2":"2025-03-28 14:20:41+00:00","changeset__3":"Johnwhelan"},"geometry":{"type":"Point","coordinates":[-10.787000057463644,6.383999983924582]}},{"type":"Feature","properties":{"osm_id":"4131212886","amenity":"clinic","healthcare":"clinic","name":"Bo Waterside Community Clinic","operator":"Government","source":"Red Cross Field Survey","operationa":"functional","opening_ho":"Mo-Fr 08:00-17:00","dispensing":"yes","water_sour":"pub_tap","electricit":"solar","addr_postc":"1000","changeset_":"166195665","changeset__1":"10","changeset__2":"2025-05-13 10:45:33+00:00","changeset__3":"catgirlseraid"},"geometry":{"type":"Point","coordinates":[-11.372920318820832,7.011201453687477]}},{"type":"Feature","properties":{"osm_id":"12875875403","amenity":"clinic","addr_house":"88","addr_postc":"cl54","changeset_":"166986196","changeset__1":"1","changeset__2":"2025-05-30 18:48:22+00:00","changeset__3":"Fred y choloplay"},"geometry":{"type":"Point","coordinates":[-8.571091319088339,6.569809594379876]}},{"type":"Feature","properties":{"osm_id":"12875885201","amenity":"clinic","opening_ho":"Su-Th 00:00-24:00","changeset_":"166986196","changeset__1":"1","changeset__2":"2025-05-30 18:48:20+00:00","changeset__3":"Fred y choloplay"},"geometry":{"type":"Point","coordinates":[-8.570190683592358,6.567446065323026]}},{"type":"Feature","properties":{"osm_id":"2755607675","amenity":"hospital","source":"GNS;Personal knowledge","changeset_":"114767925","changeset__1":"5","changeset__2":"2021-12-10 04:47:39+00:00","changeset__3":"SozhRiver"},"geometry":{"type":"Point","coordinates":[-10.469522063721712,6.353130188907812]}},{"type":"Feature","properties":{"osm_id":"2996153466","amenity":"clinic","name":"Bendu Central Clinic","source":"GNS","changeset_":"88701403","changeset__1":"3","changeset__2":"2020-07-29 23:07:16+00:00","changeset__3":"Koakun1"},"geometry":{"type":"Point","coordinates":[-11.21241550640832,6.761420571478681]}},{"type":"Feature","properties":{"osm_id":"2996153471","amenity":"hospital","name":"Masating Leper Colony","source":"GNS","changeset_":"27026152","changeset__1":"2","changeset__2":"2014-11-25 17:28:17+00:00","changeset__3":"pierzen_import"},"geometry":{"type":"Point","coordinates":[-10.994393403866866,6.930631079984323]}},{"type":"Feature","properties":{"osm_id":"3015635364","amenity":"clinic","healthcare":"clinic","name":"Sinje Health Clinic","changeset_":"131784459","changeset__1":"4","changeset__2":"2023-01-27 18:38:56+00:00","changeset__3":"WalkerB"},"geometry":{"type":"Point","coordinates":[-11.1390518092347,6.82303158311754]}},{"type":"Feature","properties":{"osm_id":"3040191771","amenity":"clinic","healthcare":"clinic","name":"Duport Health Center","source":"Ministry of Health and national :Public Institute","operationa":"functional","changeset_":"124180125","changeset__1":"6","changeset__2":"2022-07-28 10:51:29+00:00","changeset__3":"WalkerB"},"geometry":{"type":"Point","coordinates":[-10.690041219037568,6.275525248728428]}},{"type":"Feature","properties":{"osm_id":"3040192808","amenity":"hospital","healthcare":"hospital","name":"Benson Hospital","source":"Ministry of Health and national :Public Institute","operationa":"functional","changeset_":"88452943","changeset__1":"4","changeset__2":"2020-07-24 10:43:59+00:00","changeset__3":"Koakun1"},"geometry":{"type":"Point","coordinates":[-10.690015738051926,6.283406249368284]}},{"type":"Feature","properties":{"osm_id":"3198032317","amenity":"hospital","healthcare":"hospital","name":"Robersport ETU","operator":"government","source":"WNA Hub - TFiRL project","speciality":"emergency","operationa":"completed","opening_ho":"24/7","emergency":"yes","addr_city":"Robertsports","changeset_":"137971232","changeset__1":"5","changeset__2":"2023-06-30 19:16:36+00:00","changeset__3":"user_12507004"},"geometry":{"type":"Point","coordinates":[-11.367000012971317,6.749999976947663]}},{"type":"Feature","properties":{"osm_id":"3198032323","amenity":"hospital","healthcare":"hospital","name":"Voinjama ETU","operator":"WAHA","source":"UNMEER;https://data.hdx.rwlabs.org/dataset/ebola-treatment-centers","operationa":"planned","changeset_":"133090352","changeset__1":"4","changeset__2":"2023-02-27 14:34:50+00:00","changeset__3":"WalkerB"},"geometry":{"type":"Point","coordinates":[-9.749973227201735,8.416938984458795]}},{"type":"Feature","properties":{"osm_id":"3708466720","amenity":"clinic","healthcare":"clinic","name":"Slipway Clinic","source":"Ministry of Health and National Public Institite of Liberia","operationa":"functional","addr_city":"Monrovia","changeset_":"124181952","changeset__1":"6","changeset__2":"2022-07-28 11:32:46+00:00","changeset__3":"WalkerB"},"geometry":{"type":"Point","coordinates":[-10.798402882359909,6.316001878248471]}},{"type":"Feature","properties":{"osm_id":"4100642431","amenity":"pharmacy","healthcare":"pharmacy","name":"Joan Medicine Store","dispensing":"yes","addr_stree":"Ganta Main Street","addr_city":"Ganta","changeset_":"124183331","changeset__1":"4","changeset__2":"2022-07-28 12:01:25+00:00","changeset__3":"WalkerB"},"geometry":{"type":"Point","coordinates":[-8.986049254176635,7.233643752867465]}},{"type":"Feature","properties":{"osm_id":"4100642444","amenity":"pharmacy","healthcare":"pharmacy","name":"Lama Son's Medicine Store","addr_stree":"Ganta Main Street","addr_city":"Ganta","changeset_":"124183331","changeset__1":"3","changeset__2":"2022-07-28 12:01:25+00:00","changeset__3":"WalkerB"},"geometry":{"type":"Point","coordinates":[-8.987645839093148,7.230416217231465]}},{"type":"Feature","properties":{"osm_id":"4100642457","amenity":"pharmacy","healthcare":"pharmacy","name":"Mulbah Medicine Store","addr_city":"Belefanai","changeset_":"131915901","changeset__1":"3","changeset__2":"2023-01-31 10:49:15+00:00","changeset__3":"WalkerB"},"geometry":{"type":"Point","coordinates":[-9.437550945996946,7.262211122901505]}},{"type":"Feature","properties":{"osm_id":"4100642910","amenity":"pharmacy","healthcare":"pharmacy","changeset_":"131917898","changeset__1":"2","changeset__2":"2023-01-31 11:35:12+00:00","changeset__3":"WalkerB"},"geometry":{"type":"Point","coordinates":[-10.208745046558619,8.364563069917466]}},{"type":"Feature","properties":{"osm_id":"4131212888","amenity":"clinic","name":"Bong County Health Teamwork","operator":"government","source":"Red Cross Field Survey","opening_ho":"24/7","dispensing":"yes","water_sour":"piped","electricit":"none","changeset_":"88355976","changeset__1":"3","changeset__2":"2020-07-22 15:03:48+00:00","changeset__3":"Wisselyn"},"geometry":{"type":"Point","coordinates":[-9.615751548570387,7.234298295686273]}},{"type":"Feature","properties":{"osm_id":"4131212887","amenity":"hospital","name":"Bolahun Health Center","operator":"combination","source":"Red Cross Field Survey","opening_ho":"24/7","dispensing":"yes","emergency":"yes","water_sour":"pub_tap","electricit":"generator","addr_city":"Town","changeset_":"88883413","changeset__1":"4","changeset__2":"2020-08-03 15:12:38+00:00","changeset__3":"Koakun1"},"geometry":{"type":"Point","coordinates":[-10.162326066783692,8.228387737294469]}},{"type":"Feature","properties":{"osm_id":"4131212884","amenity":"clinic","healthcare":"clinic","name":"Belefanai Clinic","operator":"government","source":"Red Cross Field Survey","opening_ho":"Mo-Fr 08:00-17:00","dispensing":"yes","emergency":"yes","water_sour":"piped","electricit":"generator","addr_city":"Belefanai","changeset_":"131915901","changeset__1":"6","changeset__2":"2023-01-31 10:49:15+00:00","changeset__3":"WalkerB"},"geometry":{"type":"Point","coordinates":[-9.436612172841535,7.263712573216964]}},{"type":"Feature","properties":{"osm_id":"4131212881","amenity":"clinic","name":"Bamballa Community Clinic","operator":"government","source":"Red Cross Field Survey","opening_ho":"Mo-Fr 08:00-17:00","dispensing":"yes","emergency":"yes","water_sour":"pub_tap","electricit":"solar","addr_city":"Bamballa","changeset_":"88700479","changeset__1":"6","changeset__2":"2020-07-29 22:09:04+00:00","changeset__3":"Koakun1"},"geometry":{"type":"Point","coordinates":[-11.172672628692055,7.222237072295712]}},{"type":"Feature","properties":{"osm_id":"4131217591","amenity":"clinic","name":"Boway Clinic","operator":"government","source":"Red Cross Field Survey","speciality":"OIC","opening_ho":"Mo-Fr 08:00-17:00","dispensing":"yes","water_sour":"piped","electricit":"none","addr_city":"Boway","changeset_":"88356334","changeset__1":"4","changeset__2":"2020-07-22 15:13:23+00:00","changeset__3":"Wisselyn"},"geometry":{"type":"Point","coordinates":[-9.140673658598757,7.172894233236775]}},{"type":"Feature","properties":{"osm_id":"4131217594","amenity":"clinic","name":"David O Kerkula","operator":"government","source":"Red Cross Field Survey","speciality":"Liberia Government Clinic","opening_ho":"Mo-Fr 08:00-17:00","dispensing":"yes","emergency":"yes","water_sour":"pub_tap","electricit":"solar","addr_city":"Jana-Wende","changeset_":"88700763","changeset__1":"5","changeset__2":"2020-07-29 22:25:29+00:00","changeset__3":"Koakun1"},"geometry":{"type":"Point","coordinates":[-11.269185801326387,7.076311071710933]}},{"type":"Feature","properties":{"osm_id":"4131217604","amenity":"hospital","healthcare":"hospital","name":"GW Harley Hospital Dr","operator":"government","source":"Red Cross Field Survey","speciality":"Doctor","opening_ho":"24/7","dispensing":"yes","emergency":"yes","water_sour":"piped","electricit":"generator","addr_city":"Sanniquellie","changeset_":"124183331","changeset__1":"6","changeset__2":"2022-07-28 12:01:25+00:00","changeset__3":"WalkerB"},"geometry":{"type":"Point","coordinates":[-8.714390934132723,7.357285290399005]}},{"type":"Feature","properties":{"osm_id":"4131217601","amenity":"clinic","healthcare":"clinic","name":"Fatuk Robert","operator":"government","source":"Red Cross Field Survey","speciality":"nurse,midwife","opening_ho":"Mo-Fr 08:00-17:00","dispensing":"yes","emergency":"yes","water_sour":"piped","electricit":"solar","addr_city":"Fatuk Robert","changeset_":"131917573","changeset__1":"5","changeset__2":"2023-01-31 11:28:34+00:00","changeset__3":"WalkerB"},"geometry":{"type":"Point","coordinates":[-9.748279579846496,8.420692233061828]}},{"type":"Feature","properties":{"osm_id":"4131217600","amenity":"clinic","name":"Fangonda Clinic","operator":"combination","source":"Red Cross Field Survey","opening_ho":"Mo-Fr 08:00-17:00, Sa, Su","emergency":"yes","water_sour":"pub_tap","electricit":"solar","addr_city":"Kolahun","changeset_":"88883413","changeset__1":"5","changeset__2":"2020-08-03 15:12:38+00:00","changeset__3":"Koakun1"},"geometry":{"type":"Point","coordinates":[-10.173481457898305,8.221548858676158]}},{"type":"Feature","properties":{"osm_id":"4131217610","amenity":"clinic","name":"Gbegbe Self-Initiative Clinic","operator":"private_np","source":"Red Cross Field Survey","opening_ho":"\"by appointment\"","dispensing":"no","emergency":"no","water_sour":"surface_water","electricit":"none","addr_city":"Gbegbe","changeset_":"88882518","changeset__1":"4","changeset__2":"2020-08-03 14:50:45+00:00","changeset__3":"Koakun1"},"geometry":{"type":"Point","coordinates":[-9.661748750977608,8.405809577244014]}},{"type":"Feature","properties":{"osm_id":"4131217613","healthcare":"alternative","name":"Jabate Kamara Traditional Center","operator":"private_profit","source":"Red Cross Field Survey","opening_ho":"Mo-Fr 08:00-17:00","dispensing":"yes","water_sour":"protected_well","electricit":"flash_light","addr_city":"Town","changeset_":"70259951","changeset__1":"4","changeset__2":"2019-05-15 05:03:02+00:00","changeset__3":"mapman44"},"geometry":{"type":"Point","coordinates":[-11.322097822394682,7.032749650365929]}},{"type":"Feature","properties":{"osm_id":"4131217615","amenity":"clinic","name":"Jorwah Clinic","operator":"government","source":"Red Cross Field Survey","opening_ho":"Mo-Fr 08:00-17:00","dispensing":"yes","emergency":"yes","water_sour":"protected_well","electricit":"generator","addr_city":"Jorwah","changeset_":"88355253","changeset__1":"4","changeset__2":"2020-07-22 14:42:55+00:00","changeset__3":"Wisselyn"},"geometry":{"type":"Point","coordinates":[-9.218713116638668,7.378204425244292]}},{"type":"Feature","properties":{"osm_id":"4131217626","amenity":"clinic","name":"Kpaiyea Clinic","operator":"ngo","source":"Ministry of Health and National Public Health Institute","dispensing":"yes","emergency":"yes","electricit":"solar","addr_city":"Kpaiyea","changeset_":"88885332","changeset__1":"3","changeset__2":"2020-08-03 16:02:26+00:00","changeset__3":"Koakun1"},"geometry":{"type":"Point","coordinates":[-9.385731925102505,7.715789850328207]}},{"type":"Feature","properties":{"osm_id":"4131217628","amenity":"pharmacy","name":"Krubo Kpalaga Drugs Store","operator":"private_profit","source":"Red Cross Field Survey","speciality":"Krubo Kpalaga","opening_ho":"24/7","dispensing":"yes","emergency":"yes","water_sour":"hand_pump","electricit":"chanies_light","addr_city":"Womai","changeset_":"69904177","changeset__1":"4","changeset__2":"2019-05-05 13:15:37+00:00","changeset__3":"mapman44"},"geometry":{"type":"Point","coordinates":[-10.785827680666756,7.561949992043139]}},{"type":"Feature","properties":{"osm_id":"4131217635","amenity":"clinic","healthcare":"clinic","name":"M","operator":"government","source":"Red Cross Field Survey","opening_ho":"Mo-Fr 08:00-17:00","dispensing":"yes","emergency":"yes","water_sour":"piped","electricit":"solar","addr_city":"Town","changeset_":"131917573","changeset__1":"6","changeset__2":"2023-01-31 11:28:34+00:00","changeset__3":"WalkerB"},"geometry":{"type":"Point","coordinates":[-9.750293834998104,8.419333778014504]}},{"type":"Feature","properties":{"osm_id":"4131217638","amenity":"clinic","name":"Mbalotahun Clinic","operator":"government","source":"Red Cross Field Survey","opening_ho":"24/7","dispensing":"yes","emergency":"yes","water_sour":"pub_tap","electricit":"solar","addr_city":"Mbalotahun","changeset_":"88883413","changeset__1":"4","changeset__2":"2020-08-03 15:12:38+00:00","changeset__3":"Koakun1"},"geometry":{"type":"Point","coordinates":[-10.154184975688366,8.220890460181863]}},{"type":"Feature","properties":{"osm_id":"4131217639","amenity":"doctors","healthcare":"alternative","name":"Momo Jaliaba Traditional Center","operator":"private_profit","source":"Red Cross Field Survey","speciality":"medical assistant","opening_ho":"24/7","dispensing":"yes","emergency":"yes","water_sour":"tubewell","electricit":"flash_light","addr_city":"Dindinlor Town","changeset_":"69904006","changeset__1":"4","changeset__2":"2019-05-05 13:09:05+00:00","changeset__3":"mapman44"},"geometry":{"type":"Point","coordinates":[-11.29257206555178,6.987769843365896]}},{"type":"Feature","properties":{"osm_id":"4131217636","amenity":"doctors","healthcare":"alternative","name":"Maima Seih","operator":"private_profit","source":"Red Cross Field Survey","speciality":"Ries, stomach pain","opening_ho":"24/7","dispensing":"yes","emergency":"yes","water_sour":"surface_water","electricit":"oil_lamp","addr_city":"Kumabu","changeset_":"70259951","changeset__1":"4","changeset__2":"2019-05-15 05:03:03+00:00","changeset__3":"mapman44"},"geometry":{"type":"Point","coordinates":[-11.106491132890739,7.216031195005087]}},{"type":"Feature","properties":{"osm_id":"4131217634","amenity":"clinic","healthcare":"clinic","name":"Lugbleh Community Clinic","operator":"ngo","source":"Red Cross Field Survey","speciality":"George Woyee","opening_ho":"Mo-Fr 08:00-17:00","dispensing":"yes","water_sour":"protected_spring","electricit":"none","addr_city":"Lugbleh","changeset_":"87062832","changeset__1":"4","changeset__2":"2020-06-24 05:43:06+00:00","changeset__3":"RomEvg"},"geometry":{"type":"Point","coordinates":[-8.62002713292918,7.606725448243793]}},{"type":"Feature","properties":{"osm_id":"4131217633","amenity":"clinic","healthcare":"clinic","name":"Loleyah Kollie","operator":"ngo","source":"Red Cross Field Survey","opening_ho":"Mo-Fr 08:00-17:00","dispensing":"yes","emergency":"yes","water_sour":"piped","electricit":"solar","addr_city":"Loleyah Kollie","changeset_":"131917573","changeset__1":"4","changeset__2":"2023-01-31 11:28:34+00:00","changeset__3":"WalkerB"},"geometry":{"type":"Point","coordinates":[-9.747539206339155,8.420734645491876]}},{"type":"Feature","properties":{"osm_id":"4131217642","amenity":"doctors","name":"Pentecostal Free Clinic","operator":"private_np","source":"Red Cross Field Survey","speciality":"Moses F.Saah","opening_ho":"Mo-Fr 08:00-17:00, Sa, Su","dispensing":"yes","water_sour":"protected_spring","electricit":"none","addr_city":"Camp 4","changeset_":"88776771","changeset__1":"3","changeset__2":"2020-07-31 10:33:19+00:00","changeset__3":"cweah"},"geometry":{"type":"Point","coordinates":[-8.564528121265425,7.543540734284107]}},{"type":"Feature","properties":{"osm_id":"4131217646","amenity":"doctors","name":"Samuel Zawolo","operator":"private_profit","source":"Red Cross Field Survey","speciality":"G.C.A.V","opening_ho":"24/7","dispensing":"no","emergency":"no","water_sour":"piped","electricit":"none","addr_city":"Nyantania","changeset_":"44595820","changeset__1":"2","changeset__2":"2016-12-22 17:11:13+00:00","changeset__3":"Giblet"},"geometry":{"type":"Point","coordinates":[-9.108524366062568,7.197297557593231]}},{"type":"Feature","properties":{"osm_id":"4131217647","amenity":"clinic","healthcare":"clinic","name":"Sarkonedu Clinic","operator":"government","source":"Red Cross Field Survey","speciality":"family planning","opening_ho":"Mo-Fr 08:00-17:00","dispensing":"yes","emergency":"yes","water_sour":"protected_well","electricit":"solar","addr_city":"Sarkonedu","changeset_":"131917573","changeset__1":"5","changeset__2":"2023-01-31 11:28:34+00:00","changeset__3":"WalkerB"},"geometry":{"type":"Point","coordinates":[-9.67333865995272,8.461667418182628]}},{"type":"Feature","properties":{"osm_id":"4131217651","amenity":"clinic","healthcare":"clinic","name":"Thomas Sloan","operator":"government","source":"Red Cross Field Survey","speciality":"OIC","opening_ho":"Mo-Fr 08:00-17:00, Sa, Su","dispensing":"yes","emergency":"yes","water_sour":"protected_well","electricit":"none","addr_city":"Ray Hill Village","changeset_":"131915901","changeset__1":"5","changeset__2":"2023-01-31 10:49:15+00:00","changeset__3":"WalkerB"},"geometry":{"type":"Point","coordinates":[-9.499681635632584,7.362046546677675]}},{"type":"Feature","properties":{"osm_id":"4131217654","amenity":"clinic","name":"Tunukpuyee Community Clinic","operator":"government","source":"Red Cross Field Survey","speciality":"A.N.C","opening_ho":"Mo-Fr 08:00-17:00, Sa, Su","dispensing":"yes","emergency":"yes","water_sour":"unprotected_well","electricit":"none","addr_city":"Town","changeset_":"44595820","changeset__1":"3","changeset__2":"2016-12-22 17:11:15+00:00","changeset__3":"Giblet"},"geometry":{"type":"Point","coordinates":[-8.992309613837904,7.073636657865364]}},{"type":"Feature","properties":{"osm_id":"4131217659","amenity":"doctors","healthcare":"alternative","name":"Yah Wuakar","operator":"private_np","source":"Red Cross Field Survey","speciality":"traditional healer","opening_ho":"\"by appointment\"","dispensing":"no","emergency":"no","electricit":"none","addr_city":"Ganta","changeset_":"51955576","changeset__1":"5","changeset__2":"2017-09-11 21:33:50+00:00","changeset__3":"jessbeutler"},"geometry":{"type":"Point","coordinates":[-8.947339613664582,7.230043641635405]}},{"type":"Feature","properties":{"osm_id":"4131217658","amenity":"clinic","name":"Wulukoham Clinic","operator":"government","source":"Red Cross Field Survey","opening_ho":"Mo-Fr 08:00-17:00","dispensing":"yes","emergency":"yes","water_sour":"protected_well","electricit":"solar","addr_city":"Nyandemoilahun","changeset_":"88880116","changeset__1":"4","changeset__2":"2020-08-03 13:41:52+00:00","changeset__3":"Koakun1"},"geometry":{"type":"Point","coordinates":[-9.959959431532639,8.442147390615077]}},{"type":"Feature","properties":{"osm_id":"4131217665","amenity":"clinic","healthcare":"clinic","name":"Yekepa YMCA Clinic","source":"Red Cross Field Survey","speciality":"Tawoda Flomo","opening_ho":"Mo-Fr 08:00-17:00, Sa, Su","dispensing":"yes","emergency":"yes","water_sour":"pub_tap","electricit":"solar","addr_city":"Yekepa","changeset_":"88776771","changeset__1":"6","changeset__2":"2020-07-31 10:33:19+00:00","changeset__3":"cweah"},"geometry":{"type":"Point","coordinates":[-8.543928839845222,7.574851920322004]}},{"type":"Feature","properties":{"osm_id":"4131217667","amenity":"doctors","operator":"private_profit","source":"Red Cross Field Survey","dispensing":"no","water_sour":"unprotected_spring","electricit":"none","changeset_":"44595820","changeset__1":"3","changeset__2":"2016-12-22 17:11:18+00:00","changeset__3":"Giblet"},"geometry":{"type":"Point","coordinates":[-11.413153454053713,6.972759698800843]}},{"type":"Feature","properties":{"osm_id":"4131217669","amenity":"doctors","healthcare":"alternative","source":"Red Cross Field Survey","changeset_":"44595820","changeset__1":"2","changeset__2":"2016-12-22 17:11:18+00:00","changeset__3":"Giblet"},"geometry":{"type":"Point","coordinates":[-11.303644224367872,7.042290351653179]}},{"type":"Feature","properties":{"osm_id":"4131217671","healthcare":"alternative","source":"Red Cross Field Survey","water_sour":"tubewell","electricit":"lamp","changeset_":"44595820","changeset__1":"3","changeset__2":"2016-12-22 17:11:18+00:00","changeset__3":"Giblet"},"geometry":{"type":"Point","coordinates":[-11.131897016685798,7.23782925621714]}},{"type":"Feature","properties":{"osm_id":"4131217672","amenity":"doctors","healthcare":"doctor","name":"Doctor John Komian","operator":"private_profit","source":"Red Cross Field Survey","speciality":"GCHV","opening_ho":"Mo-Fr 08:00-17:00, Sa, Su","dispensing":"yes","water_sour":"unprotected_spring","electricit":"generator","changeset_":"131915901","changeset__1":"6","changeset__2":"2023-01-31 10:49:15+00:00","changeset__3":"WalkerB"},"geometry":{"type":"Point","coordinates":[-9.499759000598857,7.3393174236611]}},{"type":"Feature","properties":{"osm_id":"4131217675","healthcare":"alternative","operator":"government","source":"Red Cross Field Survey","opening_ho":"Mo-Fr 08:00-17:00, Sa, Su","dispensing":"yes","water_sour":"protected_well","electricit":"solar","addr_city":"Lorma Village","changeset_":"44595820","changeset__1":"3","changeset__2":"2016-12-22 17:11:19+00:00","changeset__3":"Giblet"},"geometry":{"type":"Point","coordinates":[-9.527893110057846,7.544252022587415]}},{"type":"Feature","properties":{"osm_id":"4131217677","amenity":"clinic","healthcare":"clinic","operator":"government","source":"Red Cross Field Survey","speciality":"general","opening_ho":"Mo-Fr 08:00-17:00","dispensing":"yes","emergency":"yes","water_sour":"protected_well","electricit":"solar","changeset_":"131916731","changeset__1":"4","changeset__2":"2023-01-31 11:09:08+00:00","changeset__3":"WalkerB"},"geometry":{"type":"Point","coordinates":[-9.49356083465915,7.615039290363541]}},{"type":"Feature","properties":{"osm_id":"4131217676","amenity":"doctors","operator":"private_profit","source":"Red Cross Field Survey","opening_ho":"Mo-Fr 08:00-17:00, Sa, Su","dispensing":"yes","water_sour":"protected_spring","electricit":"solar","addr_city":"Camp 4","changeset_":"88776771","changeset__1":"5","changeset__2":"2020-07-31 10:33:19+00:00","changeset__3":"cweah"},"geometry":{"type":"Point","coordinates":[-8.559704838903258,7.545565550633739]}},{"type":"Feature","properties":{"osm_id":"4131217681","amenity":"clinic","healthcare":"clinic","operator":"government","source":"Red Cross Field Survey","opening_ho":"Mo-Fr 08:00-17:00","dispensing":"yes","water_sour":"piped","electricit":"solar","changeset_":"131922085","changeset__1":"4","changeset__2":"2023-01-31 13:24:45+00:00","changeset__3":"WalkerB"},"geometry":{"type":"Point","coordinates":[-10.06622310449066,8.389506775571533]}},{"type":"Feature","properties":{"osm_id":"4131217679","amenity":"doctors","source":"Red Cross Field Survey","opening_ho":"Mo-Fr 08:00-17:00, Sa, Su","dispensing":"yes","water_sour":"pub_tap","electricit":"solar","changeset_":"44595820","changeset__1":"2","changeset__2":"2016-12-22 17:11:20+00:00","changeset__3":"Giblet"},"geometry":{"type":"Point","coordinates":[-10.494346662531683,8.058400980735911]}},{"type":"Feature","properties":{"osm_id":"4504631390","amenity":"clinic","healthcare":"clinic","name":"Yookudi Primary Health Care Facility","opening_ho":"Mo-Fr 08:00-16:00","changeset_":"131923349","changeset__1":"3","changeset__2":"2023-01-31 13:59:54+00:00","changeset__3":"WalkerB"},"geometry":{"type":"Point","coordinates":[-7.600560138358674,4.44527466470808]}},{"type":"Feature","properties":{"osm_id":"4514664908","amenity":"pharmacy","name":"Barcolleh's Medicine Store","source":"Red Cross Field Survey","opening_ho":"Mo-Fr 08:00-17:00","addr_stree":"Zorzor Road","addr_city":"Kpayea","changeset_":"43860846","changeset__1":"1","changeset__2":"2016-11-22 02:46:02+00:00","changeset__3":"Giblet"},"geometry":{"type":"Point","coordinates":[-9.387173780086414,7.715616428751531]}},{"type":"Feature","properties":{"osm_id":"4514664911","amenity":"clinic","healthcare":"clinic","name":"Faith Medical & Laboratory Clinic","source":"Red Cross Field Survey","opening_ho":"24/7","addr_city":"Salayea","changeset_":"131916731","changeset__1":"2","changeset__2":"2023-01-31 11:09:08+00:00","changeset__3":"WalkerB"},"geometry":{"type":"Point","coordinates":[-9.492713256610244,7.61606012235103]}},{"type":"Feature","properties":{"osm_id":"4514671068","amenity":"pharmacy","healthcare":"pharmacy","name":"Charline Medicine Store","source":"Red Cross Field Survey","opening_ho":"Mo-Fr 08:00-17:00","addr_stree":"Central Zorzor","addr_city":"Zorzor","changeset_":"131916731","changeset__1":"2","changeset__2":"2023-01-31 11:09:08+00:00","changeset__3":"WalkerB"},"geometry":{"type":"Point","coordinates":[-9.42957405638478,7.777998659301403]}},{"type":"Feature","properties":{"osm_id":"4517312190","amenity":"pharmacy","healthcare":"pharmacy","name":"Lucky Pharmacy","source":"Red Cross Field Survey","dispensing":"yes","emergency":"no","addr_stree":"G.M.Street","addr_city":"Ganta","changeset_":"124183331","changeset__1":"5","changeset__2":"2022-07-28 12:01:25+00:00","changeset__3":"WalkerB"},"geometry":{"type":"Point","coordinates":[-8.99129590646811,7.231900819921549]}},{"type":"Feature","properties":{"osm_id":"4841756305","amenity":"pharmacy","healthcare":"pharmacy","name":"Devine Glory Medicine Store","opening_ho":"Mo-Su 09:00-21:00","dispensing":"yes","emergency":"no","addr_stree":"Moses P. Harris Street","addr_city":"Zwedru","changeset_":"142185130","changeset__1":"3","changeset__2":"2023-10-05 11:22:44+00:00","changeset__3":"WalkerB"},"geometry":{"type":"Point","coordinates":[-8.13196877624597,6.075287784521521]}},{"type":"Feature","properties":{"osm_id":"4842059282","amenity":"pharmacy","healthcare":"pharmacy","name":"Harris Gibril Medicine Store","operator":"private_profit","opening_ho":"Mo-Su 09:00-22:00","dispensing":"yes","emergency":"yes","addr_stree":"Kangba Street","addr_city":"Zwedru","changeset_":"142185130","changeset__1":"3","changeset__2":"2023-10-05 11:22:44+00:00","changeset__3":"WalkerB"},"geometry":{"type":"Point","coordinates":[-8.141984815262191,6.063562591629164]}},{"type":"Feature","properties":{"osm_id":"4845930575","amenity":"clinic","healthcare":"clinic","dispensing":"yes","emergency":"yes","addr_stree":"Dehsuah Street","addr_city":"Zwedru","changeset_":"142185130","changeset__1":"3","changeset__2":"2023-10-05 11:22:44+00:00","changeset__3":"WalkerB"},"geometry":{"type":"Point","coordinates":[-8.132352248316153,6.068698351341652]}},{"type":"Feature","properties":{"osm_id":"4845930727","amenity":"pharmacy","healthcare":"pharmacy","name":"Simplicity Medicine Store","dispensing":"yes","emergency":"no","addr_stree":"Towah Street","addr_city":"Zwedru","changeset_":"142185130","changeset__1":"3","changeset__2":"2023-10-05 11:22:44+00:00","changeset__3":"WalkerB"},"geometry":{"type":"Point","coordinates":[-8.134577978884835,6.070665584016467]}},{"type":"Feature","properties":{"osm_id":"4845930812","amenity":"pharmacy","healthcare":"pharmacy","name":"God's Favor Medicine Store","opening_ho":"24/7","dispensing":"no","emergency":"no","addr_stree":"Telecom Road","addr_city":"Zwedru","changeset_":"142185130","changeset__1":"3","changeset__2":"2023-10-05 11:22:44+00:00","changeset__3":"WalkerB"},"geometry":{"type":"Point","coordinates":[-8.130735882108183,6.070735489088946]}},{"type":"Feature","properties":{"osm_id":"4845931121","amenity":"pharmacy","healthcare":"pharmacy","name":"Zanwo Community Medicine Store","operator":"private_profit","opening_ho":"Mo-Su 09:00-21:00","dispensing":"no","emergency":"no","addr_stree":"Telecom Road","addr_city":"Zwedru","changeset_":"142185130","changeset__1":"3","changeset__2":"2023-10-05 11:22:44+00:00","changeset__3":"WalkerB"},"geometry":{"type":"Point","coordinates":[-8.131446667497272,6.070127884927899]}},{"type":"Feature","properties":{"osm_id":"4845930804","amenity":"pharmacy","healthcare":"pharmacy","name":"Mohfod Medicine Store","operator":"private_profit","dispensing":"no","emergency":"no","addr_stree":"Dehsuah Street","addr_city":"Zwedru","changeset_":"142185130","changeset__1":"4","changeset__2":"2023-10-05 11:22:44+00:00","changeset__3":"WalkerB"},"geometry":{"type":"Point","coordinates":[-8.130554581542526,6.068959279987439]}},{"type":"Feature","properties":{"osm_id":"4845931148","amenity":"pharmacy","healthcare":"pharmacy","name":"God With Us Pharmacy","operator":"private_profit","opening_ho":"Mo-Su 09:00-21:00","dispensing":"no","emergency":"no","addr_stree":"Moses P. Harris Street","addr_city":"Zwedru","changeset_":"142185130","changeset__1":"2","changeset__2":"2023-10-05 11:22:44+00:00","changeset__3":"WalkerB"},"geometry":{"type":"Point","coordinates":[-8.133611461629897,6.069965527463438]}},{"type":"Feature","properties":{"osm_id":"4846040610","amenity":"pharmacy","healthcare":"pharmacy","name":"Good Health Medicine Store","dispensing":"yes","emergency":"no","addr_stree":"Dehsuah Street","addr_city":"Zwedru","changeset_":"142185130","changeset__1":"5","changeset__2":"2023-10-05 11:22:44+00:00","changeset__3":"WalkerB"},"geometry":{"type":"Point","coordinates":[-8.127604319263526,6.069134461763781]}},{"type":"Feature","properties":{"osm_id":"4846195500","amenity":"pharmacy","healthcare":"pharmacy","name":"Choice Pharmacy","opening_ho":"Mo-Sa 07:00-21:00","dispensing":"yes","emergency":"no","addr_stree":"Doe Street","addr_city":"Zwedru","changeset_":"142185130","changeset__1":"3","changeset__2":"2023-10-05 11:22:44+00:00","changeset__3":"WalkerB"},"geometry":{"type":"Point","coordinates":[-8.133919915666695,6.06607699494316]}},{"type":"Feature","properties":{"osm_id":"4846195544","amenity":"pharmacy","healthcare":"pharmacy","name":"Get Well Medicine Store","opening_ho":"Mo-Su 09:00-21:00","addr_stree":"Albert T. White Street","addr_city":"Zwedru","changeset_":"142185130","changeset__1":"4","changeset__2":"2023-10-05 11:22:44+00:00","changeset__3":"WalkerB"},"geometry":{"type":"Point","coordinates":[-8.133734507968484,6.065903573366512]}},{"type":"Feature","properties":{"osm_id":"4858066617","amenity":"clinic","healthcare":"clinic","opening_ho":"Mo-Sa 08:00-18:00","dispensing":"yes","emergency":"no","addr_stree":"Lassana Street","addr_city":"Zwedru","changeset_":"142185130","changeset__1":"5","changeset__2":"2023-10-05 11:22:44+00:00","changeset__3":"WalkerB"},"geometry":{"type":"Point","coordinates":[-8.127854016159063,6.07037045720574]}},{"type":"Feature","properties":{"osm_id":"4858066704","amenity":"pharmacy","healthcare":"pharmacy","name":"Faith Medicine Store","operator":"private_profit","opening_ho":"Mo-Sa 08:00-18:00","dispensing":"yes","emergency":"no","addr_stree":"Albert T. White Street","addr_city":"Zwedru","changeset_":"142185130","changeset__1":"4","changeset__2":"2023-10-05 11:22:44+00:00","changeset__3":"WalkerB"},"geometry":{"type":"Point","coordinates":[-8.130739234869452,6.065878260018934]}},{"type":"Feature","properties":{"osm_id":"4862262846","amenity":"pharmacy","healthcare":"pharmacy","name":"Faith King Community Drug Store","opening_ho":"Mo-Sa 08:00-18:00","dispensing":"yes","emergency":"no","addr_stree":"Lassana Street","addr_city":"Zwedru","changeset_":"142185130","changeset__1":"3","changeset__2":"2023-10-05 11:22:44+00:00","changeset__3":"WalkerB"},"geometry":{"type":"Point","coordinates":[-8.1282450319421,6.073617941771289]}},{"type":"Feature","properties":{"osm_id":"4863850466","amenity":"pharmacy","healthcare":"pharmacy","name":"God's Favor Medicine Store","opening_ho":"Mo-Su 09:00-21:00","dispensing":"yes","emergency":"no","addr_stree":"Kudah Bypass","addr_city":"Zwedru","changeset_":"142185130","changeset__1":"3","changeset__2":"2023-10-05 11:22:44+00:00","changeset__3":"WalkerB"},"geometry":{"type":"Point","coordinates":[-8.142557634525076,6.052094387888133]}},{"type":"Feature","properties":{"osm_id":"4876406758","amenity":"pharmacy","healthcare":"pharmacy","name":"Yangean Business Medicine Store","opening_ho":"Mo-Sa 09:00-18:00","dispensing":"yes","emergency":"no","addr_city":"Ganta","changeset_":"124183331","changeset__1":"3","changeset__2":"2022-07-28 12:01:25+00:00","changeset__3":"WalkerB"},"geometry":{"type":"Point","coordinates":[-8.978906783025394,7.2273762685885]}},{"type":"Feature","properties":{"osm_id":"4876449121","amenity":"pharmacy","healthcare":"pharmacy","name":"Beawoe Brother Medicine Store","opening_ho":"Mo-Fr 08:00-18:00; Sa-Su 08:00-15:00","addr_stree":"Washington Garley Street","addr_city":"Zwedru","changeset_":"142185130","changeset__1":"3","changeset__2":"2023-10-05 11:22:44+00:00","changeset__3":"WalkerB"},"geometry":{"type":"Point","coordinates":[-8.128326336402893,6.076405678947765]}},{"type":"Feature","properties":{"osm_id":"4878677056","amenity":"clinic","healthcare":"clinic","name":"Frances Medicine","opening_ho":"Mo-Sa 08:00-18:00","addr_stree":"Ganta-Saclepea Highway","addr_city":"Ganta","changeset_":"124183331","changeset__1":"2","changeset__2":"2022-07-28 12:01:25+00:00","changeset__3":"WalkerB"},"geometry":{"type":"Point","coordinates":[-8.978317535232293,7.222225421450304]}},{"type":"Feature","properties":{"osm_id":"4880204665","amenity":"pharmacy","healthcare":"pharmacy","name":"Uncle Peter Health Care Medicine Store","operator":"private_profit","opening_ho":"Mo-Su 09:00-21:00","dispensing":"yes","emergency":"no","addr_city":"Ganta","changeset_":"124183331","changeset__1":"3","changeset__2":"2022-07-28 12:01:25+00:00","changeset__3":"WalkerB"},"geometry":{"type":"Point","coordinates":[-8.97365342521141,7.224557266913166]}},{"type":"Feature","properties":{"osm_id":"4880359189","amenity":"pharmacy","healthcare":"pharmacy","name":"Hope Medicine Store","opening_ho":"Mo-Su 09:00-21:00;24/7","addr_stree":"Kangba Street","addr_city":"Zwedru","changeset_":"142185130","changeset__1":"4","changeset__2":"2023-10-05 11:22:44+00:00","changeset__3":"WalkerB"},"geometry":{"type":"Point","coordinates":[-8.130461207141167,6.059229818240738]}},{"type":"Feature","properties":{"osm_id":"4882035221","amenity":"dentist","healthcare":"dentist","name":"Dental Department","operator":"ngo","opening_ho":"Mo-Fr 08:00-16:00","emergency":"no","addr_city":"Ganta","changeset_":"124183331","changeset__1":"2","changeset__2":"2022-07-28 12:01:25+00:00","changeset__3":"WalkerB"},"geometry":{"type":"Point","coordinates":[-8.978300017054664,7.23535818734257]}},{"type":"Feature","properties":{"osm_id":"4882035239","amenity":"pharmacy","healthcare":"pharmacy","name":"Ganta Methodist Hospital","operator":"private_np","opening_ho":"24/7","dispensing":"yes","emergency":"no","addr_city":"Ganta","changeset_":"124183331","changeset__1":"5","changeset__2":"2022-07-28 12:01:25+00:00","changeset__3":"WalkerB"},"geometry":{"type":"Point","coordinates":[-8.977590908046182,7.23544426948817]}},{"type":"Feature","properties":{"osm_id":"4882038554","amenity":"pharmacy","healthcare":"pharmacy","name":"Martha Tubman Memorial Hospital Pharmacy","operator":"government","opening_ho":"24/7","dispensing":"yes","emergency":"yes","addr_city":"Zwedru","changeset_":"142185130","changeset__1":"4","changeset__2":"2023-10-05 11:22:44+00:00","changeset__3":"WalkerB"},"geometry":{"type":"Point","coordinates":[-8.124234207454549,6.07807225275576]}},{"type":"Feature","properties":{"osm_id":"4882038555","amenity":"pharmacy","healthcare":"pharmacy","name":"Martha Tubman Memorial Hospital County Pharmacy","operator":"Government of Liberia","opening_ho":"24/7","dispensing":"yes","emergency":"yes","addr_city":"Zwedru","changeset_":"142185130","changeset__1":"4","changeset__2":"2023-10-05 11:22:44+00:00","changeset__3":"WalkerB"},"geometry":{"type":"Point","coordinates":[-8.124029269921948,6.077755668272886]}},{"type":"Feature","properties":{"osm_id":"4888195936","amenity":"pharmacy","healthcare":"pharmacy","name":"C. J Medical Store","operator":"private_profit","opening_ho":"Mo-Sa 08:00-18:00","dispensing":"yes","emergency":"no","addr_city":"Ganta","changeset_":"124183331","changeset__1":"4","changeset__2":"2022-07-28 12:01:25+00:00","changeset__3":"WalkerB"},"geometry":{"type":"Point","coordinates":[-8.988813941119389,7.233551635751581]}},{"type":"Feature","properties":{"osm_id":"4888195925","amenity":"pharmacy","healthcare":"pharmacy","name":"God Blessing Medicine Store","opening_ho":"Mo-Sa 08:00-18:00","dispensing":"yes","emergency":"no","addr_city":"Ganta","changeset_":"124183331","changeset__1":"4","changeset__2":"2022-07-28 12:01:25+00:00","changeset__3":"WalkerB"},"geometry":{"type":"Point","coordinates":[-8.98919825137989,7.234664165759796]}},{"type":"Feature","properties":{"osm_id":"4888195929","amenity":"clinic","healthcare":"clinic","opening_ho":"Mo-Sa 08:00-18:00","emergency":"no","addr_city":"Ganta","changeset_":"124183331","changeset__1":"3","changeset__2":"2022-07-28 12:01:25+00:00","changeset__3":"WalkerB"},"geometry":{"type":"Point","coordinates":[-8.989151312722129,7.234491247097338]}},{"type":"Feature","properties":{"osm_id":"4888195954","amenity":"clinic","healthcare":"clinic","name":"Litter is Much When God Is In It","operator":"private_profit","opening_ho":"Mo-Sa 08:00-18:00","dispensing":"yes","emergency":"no","addr_city":"Ganta","changeset_":"124183331","changeset__1":"4","changeset__2":"2022-07-28 12:01:25+00:00","changeset__3":"WalkerB"},"geometry":{"type":"Point","coordinates":[-8.989179475916785,7.233448286885448]}},{"type":"Feature","properties":{"osm_id":"4889611422","amenity":"pharmacy","healthcare":"pharmacy","name":"Dahn Younwat's Retail Pharmacy","operator":"private_profit","opening_ho":"Mo-Sa 08:00-18:00","dispensing":"yes","emergency":"no","addr_stree":"Ganta Main Street","addr_city":"Ganta","changeset_":"124183331","changeset__1":"3","changeset__2":"2022-07-28 12:01:25+00:00","changeset__3":"WalkerB"},"geometry":{"type":"Point","coordinates":[-8.986406071794732,7.2338419848775]}},{"type":"Feature","properties":{"osm_id":"4889611450","amenity":"pharmacy","healthcare":"pharmacy","name":"Hope and Prayer Medicine Store","operator":"private_profit","opening_ho":"Mo-Sa 08:00-18:00","dispensing":"yes","emergency":"no","addr_stree":"Guinea Road","addr_city":"Ganta","changeset_":"124183331","changeset__1":"2","changeset__2":"2022-07-28 12:01:25+00:00","changeset__3":"WalkerB"},"geometry":{"type":"Point","coordinates":[-8.984547217127954,7.234589483002537]}},{"type":"Feature","properties":{"osm_id":"4890152517","amenity":"pharmacy","healthcare":"pharmacy","name":"Maquita Medicine Store","operator":"private_profit","opening_ho":"Mo-Sa 08:00-18:00","dispensing":"yes","emergency":"no","addr_city":"Ganta","changeset_":"124183331","changeset__1":"2","changeset__2":"2022-07-28 12:01:25+00:00","changeset__3":"WalkerB"},"geometry":{"type":"Point","coordinates":[-8.994838936939544,7.230930363172121]}},{"type":"Feature","properties":{"osm_id":"4890154243","amenity":"pharmacy","healthcare":"pharmacy","name":"Matterline Karker Medicine Store","operator":"private_profit","opening_ho":"Mo-Sa 08:00-18:00","dispensing":"yes","emergency":"no","addr_city":"Ganta","changeset_":"124183331","changeset__1":"2","changeset__2":"2022-07-28 12:01:25+00:00","changeset__3":"WalkerB"},"geometry":{"type":"Point","coordinates":[-8.993390544071161,7.228474968456482]}},{"type":"Feature","properties":{"osm_id":"4892141634","amenity":"pharmacy","healthcare":"pharmacy","name":"Noble Service Medicine Store","opening_ho":"Mo-Sa 08:00-18:00","dispensing":"yes","changeset_":"124183331","changeset__1":"3","changeset__2":"2022-07-28 12:01:25+00:00","changeset__3":"WalkerB"},"geometry":{"type":"Point","coordinates":[-8.999813428834955,7.220050652852905]}},{"type":"Feature","properties":{"osm_id":"4892181663","amenity":"pharmacy","healthcare":"pharmacy","name":"A K Medicine Store","opening_ho":"Mo-Sa 08:00-18:00","dispensing":"yes","addr_stree":"LPMC Back Pass Road","addr_city":"Ganta","changeset_":"124183331","changeset__1":"3","changeset__2":"2022-07-28 12:01:25+00:00","changeset__3":"WalkerB"},"geometry":{"type":"Point","coordinates":[-8.98782630146846,7.215063923378864]}},{"type":"Feature","properties":{"osm_id":"4892181693","amenity":"pharmacy","healthcare":"pharmacy","name":"Health Care Medicine Store","operator":"private_profit","opening_ho":"Mo-Sa 08:00-18:00","addr_stree":"LPMC Road","addr_city":"Ganta","changeset_":"124183331","changeset__1":"3","changeset__2":"2022-07-28 12:01:25+00:00","changeset__3":"WalkerB"},"geometry":{"type":"Point","coordinates":[-8.9856926041966,7.215921894987702]}},{"type":"Feature","properties":{"osm_id":"4893639761","amenity":"pharmacy","healthcare":"pharmacy","name":"Acha Drug Shop","operator":"private_profit","opening_ho":"Mo-Su 09:00-21:00","dispensing":"no","emergency":"no","addr_stree":"Dehsuah Street","addr_city":"Zwedru","changeset_":"142185130","changeset__1":"3","changeset__2":"2023-10-05 11:22:44+00:00","changeset__3":"WalkerB"},"geometry":{"type":"Point","coordinates":[-8.13339261013806,6.068615286681194]}},{"type":"Feature","properties":{"osm_id":"4893640005","amenity":"pharmacy","healthcare":"pharmacy","name":"Uncle Fatima Medicine Store","operator":"private_profit","opening_ho":"Mo-Sa 08:00-18:00","dispensing":"yes","emergency":"no","addr_stree":"Dehsuah Street","addr_city":"Zwedru","changeset_":"142185130","changeset__1":"3","changeset__2":"2023-10-05 11:22:44+00:00","changeset__3":"WalkerB"},"geometry":{"type":"Point","coordinates":[-8.132076567520784,6.067997624236341]}},{"type":"Feature","properties":{"osm_id":"4893872754","amenity":"pharmacy","healthcare":"pharmacy","name":"Sis. T Medicine Store","operator":"private_profit","opening_ho":"Mo-Sa 08:00-18:00","addr_stree":"Ganta-Tapita Road","addr_city":"Ganta","changeset_":"124183331","changeset__1":"3","changeset__2":"2022-07-28 12:01:25+00:00","changeset__3":"WalkerB"},"geometry":{"type":"Point","coordinates":[-8.982180838223996,7.22942296170541]}},{"type":"Feature","properties":{"osm_id":"4906613101","amenity":"pharmacy","name":"Dahn Gbormei Medicine Store","operator":"Moses B. Dahn","opening_ho":"Mo-Sa 08:00-18:00","dispensing":"yes","emergency":"no","addr_stree":"Ganta-Tappita Highway","addr_city":"Ganta","changeset_":"74406720","changeset__1":"2","changeset__2":"2019-09-12 19:32:46+00:00","changeset__3":"WelekemaKandakai"},"geometry":{"type":"Point","coordinates":[-8.974900149489429,7.20268225982997]}},{"type":"Feature","properties":{"osm_id":"4912797725","healthcare":"clinic","name":"HIV/AlDS Clinic","operator":"private_np","opening_ho":"Mo-Sa 08:00-18:00","addr_stree":"LPMC Bypass","addr_city":"Ganta","changeset_":"49499494","changeset__1":"1","changeset__2":"2017-06-13 13:07:05+00:00","changeset__3":"jessbeutler"},"geometry":{"type":"Point","coordinates":[-8.990395354791133,7.213881991212361]}},{"type":"Feature","properties":{"osm_id":"4912797727","amenity":"pharmacy","healthcare":"pharmacy","name":"In-Patient Department Pharmacy","operator":"private_np","opening_ho":"24/7","dispensing":"yes","emergency":"yes","addr_stree":"LPMC Bypass","addr_city":"Ganta","changeset_":"124183331","changeset__1":"2","changeset__2":"2022-07-28 12:01:25+00:00","changeset__3":"WalkerB"},"geometry":{"type":"Point","coordinates":[-8.99030675807461,7.214011323978326]}},{"type":"Feature","properties":{"osm_id":"4912797729","healthcare":"clinic","name":"Antenatal Care Clinic","operator":"private_np","speciality":"paediatrics","opening_ho":"Mo-Fr 08:00-18:00; Sa-Su 08:00-15:00","addr_stree":"LPMC Bypass","addr_city":"Ganta","changeset_":"49499494","changeset__1":"1","changeset__2":"2017-06-13 13:07:06+00:00","changeset__3":"jessbeutler"},"geometry":{"type":"Point","coordinates":[-8.990262082530677,7.213867155243747]}},{"type":"Feature","properties":{"osm_id":"4918549552","amenity":"pharmacy","healthcare":"pharmacy","name":"In God We Trust Drugs Store","opening_ho":"Mo-Sa 08:00-18:00","dispensing":"yes","emergency":"no","addr_stree":"LPMC Bypass","addr_city":"Ganta","changeset_":"124183331","changeset__1":"3","changeset__2":"2022-07-28 12:01:25+00:00","changeset__3":"WalkerB"},"geometry":{"type":"Point","coordinates":[-8.98144566149665,7.208845892328611]}},{"type":"Feature","properties":{"osm_id":"4918550276","amenity":"pharmacy","healthcare":"pharmacy","name":"Medicine Store","opening_ho":"Mo-Sa 08:00-18:00","dispensing":"yes","emergency":"no","addr_stree":"LPMC Bypass","addr_city":"Ganta","changeset_":"124183331","changeset__1":"3","changeset__2":"2022-07-28 12:01:25+00:00","changeset__3":"WalkerB"},"geometry":{"type":"Point","coordinates":[-8.980345620524162,7.206402399915476]}},{"type":"Feature","properties":{"osm_id":"4918550507","amenity":"pharmacy","healthcare":"pharmacy","name":"Morning Star Medicine Store","operator":"private_profit","opening_ho":"Mo-Sa 08:00-18:00","addr_stree":"Ganta-Tappita Highway","addr_city":"Ganta","changeset_":"124183331","changeset__1":"2","changeset__2":"2022-07-28 12:01:25+00:00","changeset__3":"WalkerB"},"geometry":{"type":"Point","coordinates":[-8.976441665302076,7.210602739233792]}},{"type":"Feature","properties":{"osm_id":"4918550498","amenity":"pharmacy","healthcare":"pharmacy","name":"STG Medicine Store","opening_ho":"Mo-Sa 08:00-18:00","dispensing":"yes","emergency":"no","addr_stree":"Ganta-Tappita Highway","addr_city":"Ganta","changeset_":"124183331","changeset__1":"3","changeset__2":"2022-07-28 12:01:25+00:00","changeset__3":"WalkerB"},"geometry":{"type":"Point","coordinates":[-8.973917203704275,7.210823518563387]}},{"type":"Feature","properties":{"osm_id":"4981054633","amenity":"pharmacy","healthcare":"pharmacy","name":"Self Help Medicine Center","operator":"private_profit","opening_ho":"24/7","dispensing":"yes","emergency":"yes","addr_stree":"Menyea Street","addr_city":"Zwedru","changeset_":"142185130","changeset__1":"2","changeset__2":"2023-10-05 11:22:44+00:00","changeset__3":"WalkerB"},"geometry":{"type":"Point","coordinates":[-8.13689347963654,6.069276535022567]}},{"type":"Feature","properties":{"osm_id":"5011612058","amenity":"pharmacy","healthcare":"pharmacy","name":"Z. B. Eye Center Pharmacy","opening_ho":"Mo-Fr 09:00-17:00;Mo-Sa 08:00-18:00","dispensing":"yes","addr_city":"Ganta","changeset_":"124183331","changeset__1":"4","changeset__2":"2022-07-28 12:01:25+00:00","changeset__3":"WalkerB"},"geometry":{"type":"Point","coordinates":[-8.988260400233827,7.234576742509716]}},{"type":"Feature","properties":{"osm_id":"5011612078","amenity":"clinic","healthcare":"clinic","name":"Bomah Clinic","operator":"private_profit","opening_ho":"24/7","dispensing":"yes","emergency":"yes","addr_city":"Ganta","changeset_":"124183331","changeset__1":"4","changeset__2":"2022-07-28 12:01:25+00:00","changeset__3":"WalkerB"},"geometry":{"type":"Point","coordinates":[-8.987399159682752,7.234732059175514]}},{"type":"Feature","properties":{"osm_id":"5011612061","amenity":"pharmacy","healthcare":"pharmacy","name":"Favor of God Business Center","operator":"private_profit","opening_ho":"Mo-Sa 08:00-18:00","dispensing":"yes","emergency":"no","addr_city":"Ganta","changeset_":"124183331","changeset__1":"4","changeset__2":"2022-07-28 12:01:25+00:00","changeset__3":"WalkerB"},"geometry":{"type":"Point","coordinates":[-8.988724338574485,7.234815878207257]}},{"type":"Feature","properties":{"osm_id":"5011612101","amenity":"pharmacy","healthcare":"pharmacy","name":"Joan Pharmaceutical","opening_ho":"Mo-Sa 08:00-18:00","addr_stree":"Ganta mine street","addr_city":"Ganta","changeset_":"124183331","changeset__1":"3","changeset__2":"2022-07-28 12:01:25+00:00","changeset__3":"WalkerB"},"geometry":{"type":"Point","coordinates":[-8.986791723159769,7.233478797012992]}},{"type":"Feature","properties":{"osm_id":"5011612103","amenity":"pharmacy","healthcare":"pharmacy","name":"Bomah Medicine Store","operator":"private_profit","opening_ho":"Mo-Su 09:00-21:00","dispensing":"yes","emergency":"no","addr_city":"Ganta","changeset_":"124183331","changeset__1":"4","changeset__2":"2022-07-28 12:01:25+00:00","changeset__3":"WalkerB"},"geometry":{"type":"Point","coordinates":[-8.987419276250364,7.233710640454774]}},{"type":"Feature","properties":{"osm_id":"5014301026","amenity":"pharmacy","healthcare":"pharmacy","name":"Sylvester & Family Drug Store","opening_ho":"Mo-Sa 08:00-18:00","addr_stree":"Rancy Street","addr_city":"Zwedru","changeset_":"142185130","changeset__1":"3","changeset__2":"2023-10-05 11:22:44+00:00","changeset__3":"WalkerB"},"geometry":{"type":"Point","coordinates":[-8.147822140270279,6.062941324965948]}},{"type":"Feature","properties":{"osm_id":"5023101517","amenity":"pharmacy","healthcare":"pharmacy","name":"Praise God Drug Store","operator":"private_profit","opening_ho":"Mo-Sa 08:00-18:00","dispensing":"yes","emergency":"no","addr_city":"Ganta","changeset_":"124183331","changeset__1":"4","changeset__2":"2022-07-28 12:01:25+00:00","changeset__3":"WalkerB"},"geometry":{"type":"Point","coordinates":[-8.987303522167537,7.227568549447284]}},{"type":"Feature","properties":{"osm_id":"5024727354","amenity":"pharmacy","healthcare":"pharmacy","name":"Lucky Pharmacy","dispensing":"yes","emergency":"no","addr_stree":"Doe Street","addr_city":"Zwedru","changeset_":"142185130","changeset__1":"3","changeset__2":"2023-10-05 11:22:44+00:00","changeset__3":"WalkerB"},"geometry":{"type":"Point","coordinates":[-8.134124182647042,6.06772621821159]}},{"type":"Feature","properties":{"osm_id":"5024727364","amenity":"pharmacy","healthcare":"pharmacy","operator":"Christian Faith Pharmacy Inc.","opening_ho":"Mo-Sa 08:00-18:00","addr_stree":"Moses P. Harris Street","addr_city":"Zwedru","changeset_":"142185130","changeset__1":"3","changeset__2":"2023-10-05 11:22:44+00:00","changeset__3":"WalkerB"},"geometry":{"type":"Point","coordinates":[-8.134976370742692,6.068035426619673]}},{"type":"Feature","properties":{"osm_id":"5024733448","amenity":"pharmacy","healthcare":"pharmacy","name":"Miracle Medicine Store","operator":"Rebecca Genseh","opening_ho":"Mo-Sa 09:00-17:00","dispensing":"yes","emergency":"no","addr_city":"Ganta","changeset_":"124183331","changeset__1":"3","changeset__2":"2022-07-28 12:01:25+00:00","changeset__3":"WalkerB"},"geometry":{"type":"Point","coordinates":[-8.987425059763552,7.222150738693045]}},{"type":"Feature","properties":{"osm_id":"5024767409","amenity":"pharmacy","name":"Tuazama Medicine Store","operator":"private_profit","opening_ho":"Mo-Sa 08:00-18:00","dispensing":"yes","emergency":"no","addr_city":"Ganta","changeset_":"74406720","changeset__1":"3","changeset__2":"2019-09-12 19:32:46+00:00","changeset__3":"WelekemaKandakai"},"geometry":{"type":"Point","coordinates":[-8.974070676351374,7.203505865635805]}},{"type":"Feature","properties":{"osm_id":"5025065361","amenity":"pharmacy","healthcare":"pharmacy","name":"Da Why Medicine Store","opening_ho":"24/7","dispensing":"yes","emergency":"no","addr_city":"Ganta","changeset_":"124183331","changeset__1":"3","changeset__2":"2022-07-28 12:01:25+00:00","changeset__3":"WalkerB"},"geometry":{"type":"Point","coordinates":[-8.980778126727927,7.234173237690925]}},{"type":"Feature","properties":{"osm_id":"5025229323","amenity":"pharmacy","healthcare":"pharmacy","name":"City Center Medicine Store","operator":"private_profit","opening_ho":"24/7","dispensing":"no","emergency":"no","addr_city":"Ganta","changeset_":"124183331","changeset__1":"2","changeset__2":"2022-07-28 12:01:25+00:00","changeset__3":"WalkerB"},"geometry":{"type":"Point","coordinates":[-8.985420527619596,7.23270816483523]}},{"type":"Feature","properties":{"osm_id":"5025229324","amenity":"pharmacy","healthcare":"pharmacy","name":"Frances's Retail Pharmacy","operator":"private_profit","opening_ho":"24/7","dispensing":"no","emergency":"no","addr_city":"Ganta","changeset_":"124183331","changeset__1":"3","changeset__2":"2022-07-28 12:01:25+00:00","changeset__3":"WalkerB"},"geometry":{"type":"Point","coordinates":[-8.985466041353845,7.232171220117948]}},{"type":"Feature","properties":{"osm_id":"5025403858","amenity":"pharmacy","healthcare":"pharmacy","name":"God's Will Medicine Store","operator":"private_profit","opening_ho":"Mo-Sa 08:00-18:00","dispensing":"yes","emergency":"no","addr_stree":"LPMC Bypass","addr_city":"Ganta","changeset_":"124183331","changeset__1":"3","changeset__2":"2022-07-28 12:01:25+00:00","changeset__3":"WalkerB"},"geometry":{"type":"Point","coordinates":[-9.001230221928381,7.221130325800686]}},{"type":"Feature","properties":{"osm_id":"5027113920","amenity":"pharmacy","healthcare":"pharmacy","name":"Melue Medicine Store","operator":"private_profit","opening_ho":"Mo-Sa 08:00-18:00","dispensing":"yes","emergency":"no","addr_city":"Ganta","changeset_":"124183331","changeset__1":"3","changeset__2":"2022-07-28 12:01:25+00:00","changeset__3":"WalkerB"},"geometry":{"type":"Point","coordinates":[-8.97631375745965,7.217742276718923]}},{"type":"Feature","properties":{"osm_id":"5027113943","amenity":"clinic","healthcare":"clinic","name":"Kozowaymon Medical Clinic","operator":"private_profit","opening_ho":"24/7","dispensing":"yes","addr_city":"Ganta","changeset_":"124183331","changeset__1":"2","changeset__2":"2022-07-28 12:01:25+00:00","changeset__3":"WalkerB"},"geometry":{"type":"Point","coordinates":[-8.973698436031441,7.21700383104934]}},{"type":"Feature","properties":{"osm_id":"5029569835","amenity":"clinic","healthcare":"clinic","name":"Wetland Clinic","operator":"private_profit","opening_ho":"Mo-Sa 08:00-18:00; 24/7","dispensing":"yes","emergency":"yes","addr_stree":"fareast","addr_city":"Gbarnga","changeset_":"125657972","changeset__1":"3","changeset__2":"2022-09-01 13:59:49+00:00","changeset__3":"WalkerB"},"geometry":{"type":"Point","coordinates":[-9.466472451440069,6.999105193941631]}},{"type":"Feature","properties":{"osm_id":"5031473933","amenity":"pharmacy","healthcare":"pharmacy","name":"Gbalaluem Medicine Store","operator":"private_profit","opening_ho":"Mo-Sa 08:00-18:00","dispensing":"no","emergency":"no","addr_stree":"Lofa Road","addr_city":"Gbarnga","changeset_":"125657972","changeset__1":"2","changeset__2":"2022-09-01 13:59:49+00:00","changeset__3":"WalkerB"},"geometry":{"type":"Point","coordinates":[-9.479613515416474,7.007809046016064]}},{"type":"Feature","properties":{"osm_id":"5031473923","amenity":"pharmacy","healthcare":"pharmacy","name":"Progressive Family Medicine Store","operator":"private_profit","opening_ho":"Mo-Sa 08:00-18:00","dispensing":"yes","emergency":"no","addr_stree":"Lofa Road","addr_city":"Gbarnga","changeset_":"125657972","changeset__1":"2","changeset__2":"2022-09-01 13:59:49+00:00","changeset__3":"WalkerB"},"geometry":{"type":"Point","coordinates":[-9.479544280896278,7.008217747614793]}},{"type":"Feature","properties":{"osm_id":"5031473967","amenity":"pharmacy","healthcare":"pharmacy","name":"Ezekiel Youwagbian Pharmacy","operator":"private_profit","opening_ho":"Mo-Su 09:00-21:00","dispensing":"yes","emergency":"no","addr_stree":"Lofa Road","addr_city":"Gbarnga","changeset_":"125657972","changeset__1":"2","changeset__2":"2022-09-01 13:59:49+00:00","changeset__3":"WalkerB"},"geometry":{"type":"Point","coordinates":[-9.479307911226783,7.009338827164243]}},{"type":"Feature","properties":{"osm_id":"5033313785","amenity":"pharmacy","healthcare":"pharmacy","dispensing":"yes","emergency":"no","addr_city":"Gbarnga","changeset_":"131915901","changeset__1":"4","changeset__2":"2023-01-31 10:49:15+00:00","changeset__3":"WalkerB"},"geometry":{"type":"Point","coordinates":[-9.464208750849991,6.994662785259692]}},{"type":"Feature","properties":{"osm_id":"5034344418","amenity":"clinic","healthcare":"clinic","name":"Soul Winning Baptist Clinic","operator":"private_profit","source":"HOTOSM-DAI-LEGIT Field Survey","dispensing":"yes","emergency":"yes","addr_city":"Gbarnga","changeset_":"131915901","changeset__1":"5","changeset__2":"2023-01-31 10:49:15+00:00","changeset__3":"WalkerB"},"geometry":{"type":"Point","coordinates":[-9.458553732235941,6.996708472548221]}},{"type":"Feature","properties":{"osm_id":"5034380354","amenity":"pharmacy","healthcare":"pharmacy","name":"Panta Medical Drugs Store","operator":"private_profit","dispensing":"yes","emergency":"no","addr_city":"Gbarnga","changeset_":"125657972","changeset__1":"4","changeset__2":"2022-09-01 13:59:49+00:00","changeset__3":"WalkerB"},"geometry":{"type":"Point","coordinates":[-9.470921146549415,6.997880094973794]}},{"type":"Feature","properties":{"osm_id":"5034385901","amenity":"clinic","healthcare":"clinic","name":"Joseph Mayango Clinic","operator":"private_profit","operationa":"functional","dispensing":"yes","emergency":"yes","addr_city":"Gbarnga","changeset_":"125657972","changeset__1":"5","changeset__2":"2022-09-01 13:59:49+00:00","changeset__3":"WalkerB"},"geometry":{"type":"Point","coordinates":[-9.473162048362866,7.000737485765654]}},{"type":"Feature","properties":{"osm_id":"5034385918","amenity":"pharmacy","healthcare":"pharmacy","name":"Uncle Mark Medicine Store","opening_ho":"Mo-Sa 09:00-17:00","addr_city":"Gbarnga","changeset_":"125657972","changeset__1":"2","changeset__2":"2022-09-01 13:59:49+00:00","changeset__3":"WalkerB"},"geometry":{"type":"Point","coordinates":[-9.46872357917539,6.997326051174042]}},{"type":"Feature","properties":{"osm_id":"5034386198","amenity":"pharmacy","healthcare":"pharmacy","name":"Wisdom Medicine Store","addr_stree":"Noko Street","addr_city":"Gbarnga","changeset_":"125657972","changeset__1":"3","changeset__2":"2022-09-01 13:59:49+00:00","changeset__3":"WalkerB"},"geometry":{"type":"Point","coordinates":[-9.47282534731238,6.999099158971347]}},{"type":"Feature","properties":{"osm_id":"5034386315","amenity":"pharmacy","healthcare":"pharmacy","name":"SUCCESS Medicine Store Branch 1","operator":"private_profit","addr_city":"Gbarnga","changeset_":"125657972","changeset__1":"3","changeset__2":"2022-09-01 13:59:49+00:00","changeset__3":"WalkerB"},"geometry":{"type":"Point","coordinates":[-9.473176046141162,7.00022392655822]}},{"type":"Feature","properties":{"osm_id":"5034386525","amenity":"pharmacy","healthcare":"pharmacy","addr_city":"Gbarnga","changeset_":"125657972","changeset__1":"3","changeset__2":"2022-09-01 13:59:49+00:00","changeset__3":"WalkerB"},"geometry":{"type":"Point","coordinates":[-9.474331407674583,7.000982991709606]}},{"type":"Feature","properties":{"osm_id":"5034472533","amenity":"clinic","healthcare":"clinic","name":"Rehab Clinic","operator":"Government Of Liberia","source":"HOTOSM-DAI-LEGIT Field Survey","dispensing":"no","emergency":"no","addr_city":"Gbarnga","changeset_":"125657972","changeset__1":"4","changeset__2":"2022-09-01 13:59:49+00:00","changeset__3":"WalkerB"},"geometry":{"type":"Point","coordinates":[-9.550435735728826,7.004731043532672]}},{"type":"Feature","properties":{"osm_id":"5034472532","amenity":"clinic","healthcare":"clinic","name":"Leprosy Clinic","operator":"government","source":"HOTOSM-DAI-LEGIT Field Survey","dispensing":"no","emergency":"no","addr_city":"Gbarnga","changeset_":"125657972","changeset__1":"4","changeset__2":"2022-09-01 13:59:49+00:00","changeset__3":"WalkerB"},"geometry":{"type":"Point","coordinates":[-9.55038955144235,7.004662731021796]}},{"type":"Feature","properties":{"osm_id":"5034496732","amenity":"pharmacy","healthcare":"pharmacy","name":"Divine Favour Medicine Store","operator":"private_profit","opening_ho":"24/7","dispensing":"yes","emergency":"yes","addr_city":"Gbarnga","changeset_":"125657972","changeset__1":"3","changeset__2":"2022-09-01 13:59:49+00:00","changeset__3":"WalkerB"},"geometry":{"type":"Point","coordinates":[-9.554588717294223,7.025133182590224]}},{"type":"Feature","properties":{"osm_id":"5034497683","amenity":"pharmacy","healthcare":"pharmacy","name":"Your Health Come First","addr_city":"Gbarnga","changeset_":"125657972","changeset__1":"3","changeset__2":"2022-09-01 13:59:49+00:00","changeset__3":"WalkerB"},"geometry":{"type":"Point","coordinates":[-9.555479965058652,7.025299228092109]}},{"type":"Feature","properties":{"osm_id":"5034516883","amenity":"pharmacy","healthcare":"pharmacy","operator":"Africare","opening_ho":"Mo-Fr 09:00-17:00","addr_city":"Gbarnga","changeset_":"125657972","changeset__1":"2","changeset__2":"2022-09-01 13:59:49+00:00","changeset__3":"WalkerB"},"geometry":{"type":"Point","coordinates":[-9.550063579227924,7.02349653217658]}},{"type":"Feature","properties":{"osm_id":"5034532054","amenity":"pharmacy","healthcare":"pharmacy","name":"Leemu and Son","operator":"private_profit","opening_ho":"Mo-Sa 08:00-18:00","dispensing":"yes","emergency":"no","addr_city":"Gbarnga","changeset_":"142207002","changeset__1":"3","changeset__2":"2023-10-05 21:02:33+00:00","changeset__3":"WalkerB"},"geometry":{"type":"Point","coordinates":[-9.462863539209678,6.985697250168187]}},{"type":"Feature","properties":{"osm_id":"5034680467","amenity":"clinic","healthcare":"clinic","name":"Newman Clinic","operator":"private_profit","opening_ho":"Mo-Sa 08:00-18:00","dispensing":"yes","emergency":"yes","addr_stree":"Ganlau community","addr_city":"Ganta","changeset_":"124183331","changeset__1":"4","changeset__2":"2022-07-28 12:01:25+00:00","changeset__3":"WalkerB"},"geometry":{"type":"Point","coordinates":[-8.990719063891703,7.237839565958069]}},{"type":"Feature","properties":{"osm_id":"5034680896","amenity":"pharmacy","healthcare":"pharmacy","name":"Sanseah Medicine Store","opening_ho":"Mo-Sa 08:00-18:00","addr_stree":"Benedick Flomo Street","addr_city":"Ganta","changeset_":"124183331","changeset__1":"4","changeset__2":"2022-07-28 12:01:25+00:00","changeset__3":"WalkerB"},"geometry":{"type":"Point","coordinates":[-8.991970901130657,7.239622061486926]}},{"type":"Feature","properties":{"osm_id":"5034741289","amenity":"clinic","healthcare":"clinic","name":"Advance Nurse Aid Training","operator":"private_profit","opening_ho":"Mo-Fr 09:00-17:00","addr_city":"Ganta","changeset_":"124183331","changeset__1":"2","changeset__2":"2022-07-28 12:01:25+00:00","changeset__3":"WalkerB"},"geometry":{"type":"Point","coordinates":[-8.989305539740513,7.2290909545207]}},{"type":"Feature","properties":{"osm_id":"5034741476","amenity":"pharmacy","healthcare":"pharmacy","operator":"Jedidiah Gbala","opening_ho":"24/7","dispensing":"yes","emergency":"no","addr_city":"Ganta","changeset_":"124183331","changeset__1":"4","changeset__2":"2022-07-28 12:01:25+00:00","changeset__3":"WalkerB"},"geometry":{"type":"Point","coordinates":[-8.987326069487068,7.232038283133591]}},{"type":"Feature","properties":{"osm_id":"5034742604","amenity":"pharmacy","healthcare":"pharmacy","name":"Ma Buain Medicine Store","operator":"private_profit","opening_ho":"Mo-Sa 08:00-18:00","dispensing":"no","addr_stree":"Titus Street","addr_city":"Ganta","changeset_":"124183331","changeset__1":"5","changeset__2":"2022-07-28 12:01:25+00:00","changeset__3":"WalkerB"},"geometry":{"type":"Point","coordinates":[-8.987384575171205,7.232939170086695]}},{"type":"Feature","properties":{"osm_id":"5034897161","amenity":"pharmacy","healthcare":"pharmacy","name":"N.J. Health Care Medicine Store","opening_ho":"24/7","dispensing":"yes","emergency":"no","addr_stree":"Harley street","addr_city":"Ganta","changeset_":"124183331","changeset__1":"3","changeset__2":"2022-07-28 12:01:25+00:00","changeset__3":"WalkerB"},"geometry":{"type":"Point","coordinates":[-8.98619576984413,7.232866582805201]}},{"type":"Feature","properties":{"osm_id":"5034897154","amenity":"pharmacy","healthcare":"pharmacy","name":"Bunny Pharmaceutical","opening_ho":"24/7","dispensing":"yes","emergency":"no","addr_city":"Ganta","changeset_":"124183331","changeset__1":"3","changeset__2":"2022-07-28 12:01:25+00:00","changeset__3":"WalkerB"},"geometry":{"type":"Point","coordinates":[-8.986737324608157,7.233154752636324]}},{"type":"Feature","properties":{"osm_id":"5034897211","amenity":"clinic","healthcare":"clinic","name":"Evening Star Clinic","operator":"private_profit","opening_ho":"24/7","dispensing":"yes","emergency":"yes","addr_stree":"Harley Street","addr_city":"Ganta","changeset_":"124183331","changeset__1":"3","changeset__2":"2022-07-28 12:01:25+00:00","changeset__3":"WalkerB"},"geometry":{"type":"Point","coordinates":[-8.98601430164041,7.232155462139957]}},{"type":"Feature","properties":{"osm_id":"5034984190","amenity":"pharmacy","healthcare":"pharmacy","name":"Smile Medicine Store","opening_ho":"Mo-Sa 08:00-18:00","dispensing":"yes","emergency":"no","addr_city":"Gbarnga","changeset_":"142207002","changeset__1":"3","changeset__2":"2023-10-05 21:02:33+00:00","changeset__3":"WalkerB"},"geometry":{"type":"Point","coordinates":[-9.46052850862361,6.982658139715539]}},{"type":"Feature","properties":{"osm_id":"5035017468","amenity":"pharmacy","healthcare":"pharmacy","name":"Parent's Joy Medicine Store","addr_city":"Gbarnga","changeset_":"142207002","changeset__1":"3","changeset__2":"2023-10-05 21:02:33+00:00","changeset__3":"WalkerB"},"geometry":{"type":"Point","coordinates":[-9.481667249332048,6.987053023006496]}},{"type":"Feature","properties":{"osm_id":"5035679656","amenity":"clinic","healthcare":"clinic","name":"Save Medicine","operator":"private_profit","opening_ho":"Mo-Fr 07:00-22:00","addr_city":"Gbarnga","changeset_":"142207002","changeset__1":"3","changeset__2":"2023-10-05 21:02:33+00:00","changeset__3":"WalkerB"},"geometry":{"type":"Point","coordinates":[-9.47611834561215,6.988636448335029]}},{"type":"Feature","properties":{"osm_id":"5035679726","amenity":"pharmacy","healthcare":"pharmacy","operator":"private_profit","opening_ho":"Mo-Sa 08:00-18:00","dispensing":"no","emergency":"no","addr_city":"Gbarnga","changeset_":"142207002","changeset__1":"2","changeset__2":"2023-10-05 21:02:33+00:00","changeset__3":"WalkerB"},"geometry":{"type":"Point","coordinates":[-9.475192480587623,6.989978977766327]}},{"type":"Feature","properties":{"osm_id":"5035679728","amenity":"pharmacy","healthcare":"pharmacy","operator":"private_profit","dispensing":"yes","emergency":"no","addr_city":"Gbarnga","changeset_":"142207002","changeset__1":"2","changeset__2":"2023-10-05 21:02:33+00:00","changeset__3":"WalkerB"},"geometry":{"type":"Point","coordinates":[-9.475044204720461,6.991072480854342]}},{"type":"Feature","properties":{"osm_id":"5035704016","amenity":"pharmacy","healthcare":"pharmacy","operator":"Joseph DSuloteh","opening_ho":"Mo-Su 09:00-21:00","dispensing":"yes","emergency":"no","addr_city":"Gbarnga","changeset_":"125657972","changeset__1":"3","changeset__2":"2022-09-01 13:59:49+00:00","changeset__3":"WalkerB"},"geometry":{"type":"Point","coordinates":[-9.47228647475734,6.993359399316205]}},{"type":"Feature","properties":{"osm_id":"5035704225","amenity":"pharmacy","healthcare":"pharmacy","name":"People Medicine Store","operator":"private_profit","opening_ho":"24/7","dispensing":"yes","addr_city":"Gbarnga","changeset_":"125657972","changeset__1":"3","changeset__2":"2022-09-01 13:59:49+00:00","changeset__3":"WalkerB"},"geometry":{"type":"Point","coordinates":[-9.474280780979427,6.998595825685783]}},{"type":"Feature","properties":{"osm_id":"5035704254","amenity":"pharmacy","healthcare":"pharmacy","name":"Success Medical Store","operator":"Joseph Cammue","opening_ho":"Mo-Sa 08:00-18:00","addr_city":"Gbarnga","changeset_":"125657972","changeset__1":"3","changeset__2":"2022-09-01 13:59:49+00:00","changeset__3":"WalkerB"},"geometry":{"type":"Point","coordinates":[-9.473568151571612,6.999252799256539]}},{"type":"Feature","properties":{"osm_id":"5035704849","amenity":"clinic","healthcare":"clinic","name":"Courage Medicine Clinic","operator":"private_profit","opening_ho":"24/7","dispensing":"yes","emergency":"yes","addr_city":"Gbarnga","changeset_":"142207002","changeset__1":"2","changeset__2":"2023-10-05 21:02:33+00:00","changeset__3":"WalkerB"},"geometry":{"type":"Point","coordinates":[-9.473875432141966,6.991522337597672]}},{"type":"Feature","properties":{"osm_id":"5035800185","amenity":"pharmacy","healthcare":"pharmacy","dispensing":"yes","emergency":"no","addr_city":"Gbarnga","changeset_":"142207002","changeset__1":"2","changeset__2":"2023-10-05 21:02:33+00:00","changeset__3":"WalkerB"},"geometry":{"type":"Point","coordinates":[-9.475214105897805,6.98675404052031]}},{"type":"Feature","properties":{"osm_id":"5035800163","amenity":"pharmacy","healthcare":"pharmacy","name":"Dikaga's Medical","operator":"private_profit","dispensing":"yes","emergency":"no","addr_city":"Gbarnga","changeset_":"142207002","changeset__1":"2","changeset__2":"2023-10-05 21:02:33+00:00","changeset__3":"WalkerB"},"geometry":{"type":"Point","coordinates":[-9.476788981685075,6.982999199355675]}},{"type":"Feature","properties":{"osm_id":"5035942572","amenity":"pharmacy","healthcare":"pharmacy","name":"Gbalalu Medicine Store","opening_ho":"Mo-Sa 09:00-17:00","addr_stree":"Jorkpanmue","addr_city":"Gbarnga","changeset_":"125657972","changeset__1":"2","changeset__2":"2022-09-01 13:59:49+00:00","changeset__3":"WalkerB"},"geometry":{"type":"Point","coordinates":[-9.464956416613092,7.012580360578539]}},{"type":"Feature","properties":{"osm_id":"5037013158","amenity":"pharmacy","healthcare":"pharmacy","name":"Life Medicine Store","operator":"Nealson H Flomo","opening_ho":"24/7","dispensing":"yes","emergency":"no","addr_stree":"Ganta Hightway","addr_city":"Gbarnga","changeset_":"131915901","changeset__1":"5","changeset__2":"2023-01-31 10:49:15+00:00","changeset__3":"WalkerB"},"geometry":{"type":"Point","coordinates":[-9.45450175260379,6.993441793424381]}},{"type":"Feature","properties":{"osm_id":"5037080890","amenity":"pharmacy","healthcare":"pharmacy","name":"Fredal Medicine Store","operator":"private_profit","opening_ho":"Mo-Sa 08:00-18:00","dispensing":"no","emergency":"no","addr_stree":"Gbarnga Monrovia road","addr_city":"Gbarnga","changeset_":"125657972","changeset__1":"4","changeset__2":"2022-09-01 13:59:49+00:00","changeset__3":"WalkerB"},"geometry":{"type":"Point","coordinates":[-9.4794363219834,7.006309691176369]}},{"type":"Feature","properties":{"osm_id":"5037126640","amenity":"pharmacy","healthcare":"pharmacy","name":"Mary Tuah Medicine Store","operator":"mary tuah","opening_ho":"24/7","addr_city":"Gbarnga","changeset_":"125657972","changeset__1":"3","changeset__2":"2022-09-01 13:59:49+00:00","changeset__3":"WalkerB"},"geometry":{"type":"Point","coordinates":[-9.565315038785371,7.009767226235454]}},{"type":"Feature","properties":{"osm_id":"5037211619","amenity":"pharmacy","healthcare":"pharmacy","name":"Sherbros Medicine Store","opening_ho":"Mo-Sa 08:00-18:00","addr_stree":"Braod Street","addr_city":"Gbarnga","changeset_":"125657972","changeset__1":"2","changeset__2":"2022-09-01 13:59:49+00:00","changeset__3":"WalkerB"},"geometry":{"type":"Point","coordinates":[-9.472918554075676,6.996959929643424]}},{"type":"Feature","properties":{"osm_id":"5037211603","amenity":"pharmacy","healthcare":"pharmacy","name":"By Faith Medicine Store","operator":"private_profit","opening_ho":"Mo-Su 09:00-21:00","addr_stree":"Broad Street","addr_city":"Gbarnga","changeset_":"125657972","changeset__1":"3","changeset__2":"2022-09-01 13:59:49+00:00","changeset__3":"WalkerB"},"geometry":{"type":"Point","coordinates":[-9.471813819237411,6.996129283038925]}},{"type":"Feature","properties":{"osm_id":"5037211840","amenity":"pharmacy","healthcare":"pharmacy","name":"Good Heal Medicine Store","operator":"Multah Paye","opening_ho":"Mo-Sa 08:00-18:00","addr_stree":"Broad Street","addr_city":"Gbarnga","changeset_":"125657972","changeset__1":"3","changeset__2":"2022-09-01 13:59:49+00:00","changeset__3":"WalkerB"},"geometry":{"type":"Point","coordinates":[-9.472469619341695,6.996386775104412]}},{"type":"Feature","properties":{"osm_id":"5037211854","amenity":"pharmacy","healthcare":"pharmacy","name":"Good Neighor Med Store","operator":"Peter F Lassanah","opening_ho":"Mo-Sa 08:00-18:00","addr_stree":"People Street","addr_city":"Gbarnga","changeset_":"125657972","changeset__1":"3","changeset__2":"2022-09-01 13:59:49+00:00","changeset__3":"WalkerB"},"geometry":{"type":"Point","coordinates":[-9.472199722059514,6.995511788232136]}},{"type":"Feature","properties":{"osm_id":"5037243824","amenity":"pharmacy","name":"Medicine Store","addr_city":"Gbarnga","changeset_":"51146162","changeset__1":"1","changeset__2":"2017-08-15 16:41:39+00:00","changeset__3":"jessbeutler"},"geometry":{"type":"Point","coordinates":[-9.350161977881186,7.008666347072648]}},{"type":"Feature","properties":{"osm_id":"5037822063","amenity":"clinic","healthcare":"clinic","name":"Phico Families Health Care","operator":"private_profit","opening_ho":"Mo-Fr 08:00-18:00; Sa-Su 08:00-15:00","dispensing":"yes","emergency":"no","addr_city":"Ganta","changeset_":"124183331","changeset__1":"3","changeset__2":"2022-07-28 12:01:25+00:00","changeset__3":"WalkerB"},"geometry":{"type":"Point","coordinates":[-8.986253269699887,7.228969919838875]}},{"type":"Feature","properties":{"osm_id":"5039256316","amenity":"clinic","healthcare":"clinic","name":"Dr. Honest Centre For Alternative Medicine","operator":"private_profit","opening_ho":"Mo-Sa 08:00-18:00","emergency":"no","addr_stree":"Demeta road","addr_city":"Gbarnga","changeset_":"142207002","changeset__1":"4","changeset__2":"2023-10-05 21:02:33+00:00","changeset__3":"WalkerB"},"geometry":{"type":"Point","coordinates":[-9.469228505022556,6.985985419999309]}},{"type":"Feature","properties":{"osm_id":"5039439754","amenity":"pharmacy","healthcare":"pharmacy","name":"Family Vision Medicine Store","opening_ho":"Mo-Sa 08:00-18:00","dispensing":"yes","emergency":"no","addr_city":"Ganta","changeset_":"124183331","changeset__1":"2","changeset__2":"2022-07-28 12:01:25+00:00","changeset__3":"WalkerB"},"geometry":{"type":"Point","coordinates":[-8.97881223515759,7.222487439743503]}},{"type":"Feature","properties":{"osm_id":"5041948875","amenity":"pharmacy","healthcare":"pharmacy","name":"Panta Medical Drugs Store","dispensing":"yes","emergency":"no","addr_stree":"Gbarnga Broad Street","addr_city":"Gbarnga","changeset_":"125657972","changeset__1":"2","changeset__2":"2022-09-01 13:59:49+00:00","changeset__3":"WalkerB"},"geometry":{"type":"Point","coordinates":[-9.472986531310397,6.998721889509511]}},{"type":"Feature","properties":{"osm_id":"5041949330","amenity":"pharmacy","healthcare":"pharmacy","name":"AB Konneh Medicine","dispensing":"yes","emergency":"no","addr_city":"Gbarnga","changeset_":"125657972","changeset__1":"2","changeset__2":"2022-09-01 13:59:49+00:00","changeset__3":"WalkerB"},"geometry":{"type":"Point","coordinates":[-9.472154124506233,6.998553077979608]}},{"type":"Feature","properties":{"osm_id":"5041949540","amenity":"pharmacy","healthcare":"pharmacy","name":"Lucky Pharmacy","operator":"Harish Rohira","opening_ho":"24/7","dispensing":"yes","emergency":"no","addr_city":"Gbarnga","changeset_":"125657972","changeset__1":"3","changeset__2":"2022-09-01 13:59:49+00:00","changeset__3":"WalkerB"},"geometry":{"type":"Point","coordinates":[-9.471578706853393,6.996074884487314]}},{"type":"Feature","properties":{"osm_id":"5041949542","amenity":"pharmacy","healthcare":"pharmacy","name":"M. Swaray Medicine Store","dispensing":"yes","emergency":"no","addr_stree":"Gbarnga Broad Street","addr_city":"Gbarnga","changeset_":"125657972","changeset__1":"4","changeset__2":"2022-09-01 13:59:49+00:00","changeset__3":"WalkerB"},"geometry":{"type":"Point","coordinates":[-9.472530220501625,6.997804657845251]}},{"type":"Feature","properties":{"osm_id":"5041964479","amenity":"pharmacy","healthcare":"pharmacy","name":"Francis T. J Pharmacy","operator":"private_profit","opening_ho":"Mo-Sa 08:00-18:00","emergency":"yes","addr_stree":"Gbarnga Monrovia Highway","addr_city":"Gbarnga","changeset_":"125657972","changeset__1":"3","changeset__2":"2022-09-01 13:59:49+00:00","changeset__3":"WalkerB"},"geometry":{"type":"Point","coordinates":[-9.579665527570683,6.990062964436106]}},{"type":"Feature","properties":{"osm_id":"5052336928","amenity":"clinic","healthcare":"clinic","name":"Ark of Noah Clinic","operator":"private_profit","opening_ho":"Mo-Sa 08:00-18:00","dispensing":"yes","emergency":"no","addr_city":"Gbarnga","changeset_":"125657972","changeset__1":"3","changeset__2":"2022-09-01 13:59:49+00:00","changeset__3":"WalkerB"},"geometry":{"type":"Point","coordinates":[-9.464489209330196,7.00610433454861]}},{"type":"Feature","properties":{"osm_id":"5052336962","amenity":"pharmacy","healthcare":"pharmacy","name":"Kebehson Pharma Store","operator":"private_profit","opening_ho":"24/7","dispensing":"yes","emergency":"no","addr_city":"Gbarnga","changeset_":"125657972","changeset__1":"3","changeset__2":"2022-09-01 13:59:49+00:00","changeset__3":"WalkerB"},"geometry":{"type":"Point","coordinates":[-9.46159435143116,7.006487387523663]}},{"type":"Feature","properties":{"osm_id":"5054041648","amenity":"pharmacy","healthcare":"pharmacy","name":"New Life Medicine Store","operator":"private","opening_ho":"Mo-Sa 08:00-18:00","addr_stree":"Kokoyah Road","addr_city":"Gbarnga","changeset_":"142207002","changeset__1":"3","changeset__2":"2023-10-05 21:02:33+00:00","changeset__3":"WalkerB"},"geometry":{"type":"Point","coordinates":[-9.468638251401075,6.990499996867584]}},{"type":"Feature","properties":{"osm_id":"5054041679","amenity":"pharmacy","healthcare":"pharmacy","name":"Hope Medicine Store","operator":"private","opening_ho":"Mo-Sa 09:00-18:00","addr_stree":"kokoyah road","addr_city":"Gbarnga","changeset_":"142207002","changeset__1":"3","changeset__2":"2023-10-05 21:02:33+00:00","changeset__3":"WalkerB"},"geometry":{"type":"Point","coordinates":[-9.467311815223866,6.989591817658749]}},{"type":"Feature","properties":{"osm_id":"5055004505","amenity":"pharmacy","healthcare":"pharmacy","name":"Mrs. Folo Siakor Drug store","operator":"Mrs Folo Siakor","opening_ho":"24/7","addr_city":"Gbarnga","changeset_":"131915901","changeset__1":"2","changeset__2":"2023-01-31 10:49:15+00:00","changeset__3":"WalkerB"},"geometry":{"type":"Point","coordinates":[-9.455344972063045,6.99117406952081]}},{"type":"Feature","properties":{"osm_id":"5055007431","amenity":"pharmacy","healthcare":"pharmacy","name":"Medicine Store","operator":"Faith","opening_ho":"Mo-Sa 08:00-18:00","dispensing":"yes","emergency":"no","addr_city":"Gbarnga","changeset_":"131915901","changeset__1":"2","changeset__2":"2023-01-31 10:49:15+00:00","changeset__3":"WalkerB"},"geometry":{"type":"Point","coordinates":[-9.450016680034679,6.995200651986323]}},{"type":"Feature","properties":{"osm_id":"5056788528","amenity":"pharmacy","healthcare":"pharmacy","name":"Providence Medicine Store","operator":"Emmanuel Gboker","opening_ho":"24/7","dispensing":"yes","emergency":"no","addr_city":"Gbarnga","changeset_":"131915901","changeset__1":"3","changeset__2":"2023-01-31 10:49:15+00:00","changeset__3":"WalkerB"},"geometry":{"type":"Point","coordinates":[-9.450741714659188,6.999086921392717]}},